#----------------------------------------------------------------------------
~VERSION INFORMATION
VERS.            2.0                  :CWLS LOG ASCII STANDARD -VERSION 2.0
WRAP.            NO                   :ONE LINES PER DEPTH STEP
#
#----------------------------------------------------------------------------
~WELL INFORMATION
#MNEM .UNIT      DATA                 :DESCRIPTION OF MNEMONIC
#----------------------------------------------------------------------------
STRT  .m         100.00000            :START DEPTH
STEP  .m         0.00000              :STEP DEPTH
STOP  .m         1727.90010           :STOP DEPTH
NULL  .          -999.25              :NULL VALUE
COMP  .                               :COMPANY
WELL  .          F06-02               :WELL
LOC   .                               :LOCATION - AREA
FLD   .                               :FIELD
CTRY  .                               :COUNTRY
DATE  .                               :WELL DATE
XWELL .m         623167.00000         :X POS
YWELL .m         6076726.00000        :Y POS
#
#----------------------------------------------------------------------------
~CURVE INFORMATION
#
#MNEM                .UNIT                           : CURVE DESCRIPTION
#----------------------------------------------------------------------------
DEPT                 .Meter                          : 1
NPHI                 .V/V                            : 2
DRHO                 .G/C3                           : 3
AI                   .                               : 4
IntVelocity          .                               : 5
GR                   .GAPI                           : 6
RHOB                 .G/C3                           : 7
DT                   .US/F                           : 8
#
#----------------------------------------------------------------------------
~A
# ...
1575.00000          0.21034             0.01029             9303.63247          3826.64660          41.30281            2.41023             78.96260            
1575.10000          0.20803             0.01099             9310.16319          3831.21381          41.22163            2.41017             78.90518            
1575.20000          0.20597             0.01167             9279.88073          3835.78101          40.74119            2.40745             79.07340            
1575.30000          0.20568             0.01200             9221.44713          3840.34821          40.06109            2.40144             79.37581            
1575.40000          0.20794             0.01182             9153.29214          3836.23766          39.42506            2.39354             79.70370            
1575.50000          0.21219             0.01111             9094.13979          3829.40455          39.07768            2.38636             79.98135            
1575.60000          0.21686             0.01013             9056.23670          3822.57144          39.24180            2.38174             80.16067            
1575.70000          0.22022             0.00947             9041.82037          3815.73832          39.80478            2.37978             80.22241            
1575.80000          0.22089             0.00955             9040.15758          3808.90521          40.30502            2.37938             80.22382            
1575.90000          0.21888             0.01016             9034.99838          3802.07210          40.61320            2.37961             80.27711            
1576.00000          0.21632             0.01049             9018.60950          3795.23899          41.13747            2.38033             80.44760            
1576.10000          0.21584             0.00984             8993.76801          3788.40588          41.76919            2.38172             80.71684            
1576.20000          0.21844             0.00817             8966.33595          3781.57277          41.82509            2.38321             81.01451            
1576.30000          0.22323             0.00606             8936.73558          3774.73966          41.19730            2.38325             81.28404            
1576.40000          0.22903             0.00409             8895.98982          3773.82003          40.71455            2.37998             81.54424            
1576.50000          0.23499             0.00249             8844.86089          3774.72717          40.79246            2.37264             81.76288            
1576.60000          0.24004             0.00110             8804.15561          3775.63430          40.52630            2.36232             81.78355            
1576.70000          0.24226             -0.00029            8783.66250          3776.54144          39.61932            2.35177             81.60820            
1576.80000          0.24001             -0.00153            8773.36247          3777.44857          39.10456            2.34463             81.45602            
1576.90000          0.23338             -0.00213            8772.40707          3778.35571          39.72781            2.34343             81.42334            
1577.00000          0.22377             -0.00182            8797.85350          3779.26284          40.55446            2.34871             81.37048            
1577.10000          0.21360             -0.00092            8864.30375          3780.16998          40.49896            2.35902             81.11511            
1577.20000          0.20603             -0.00012            8962.25462          3781.07711          40.53084            2.37189             80.66635            
1577.30000          0.20452             -0.00002            9071.80905          3781.98425          41.37235            2.38488             80.12871            
1577.40000          0.20863             -0.00075            9173.59859          3787.77269          42.06365            2.39568             79.59851            
1577.50000          0.21239             -0.00194            9253.95768          3795.04563          41.15087            2.40303             79.14935            
1577.60000          0.21242             -0.00287            9304.51646          3802.31858          39.68901            2.40627             78.82541            
1577.70000          0.20984             -0.00286            9325.15695          3809.59152          39.84254            2.40546             78.62433            
1577.80000          0.20444             -0.00157            9321.20146          3816.86447          40.43881            2.40140             78.52493            
1577.90000          0.19831             0.00073             9299.75020          3824.13741          40.16277            2.39580             78.52252            
1578.00000          0.19597             0.00336             9266.97477          3831.41036          39.52357            2.39043             78.62355            
1578.10000          0.19923             0.00578             9224.62167          3838.68330          39.51718            2.38619             78.84444            
1578.20000          0.20532             0.00791             9182.01387          3845.95625          40.11315            2.38318             79.11035            
1578.30000          0.21090             0.01012             9154.55057          3853.22919          40.43162            2.38095             79.27350            
1578.40000          0.21547             0.01258             9135.15095          3852.41115          40.30180            2.37932             79.38736            
1578.50000          0.21851             0.01498             9111.65377          3849.17096          39.99181            2.37813             79.55228            
1578.60000          0.21866             0.01677             9085.72287          3845.93076          39.74406            2.37690             79.73816            
1578.70000          0.21735             0.01742             9066.59449          3842.69056          39.69218            2.37501             79.84302            
1578.80000          0.21627             0.01709             9055.75758          3839.45037          39.77734            2.37229             79.84701            
1578.90000          0.21489             0.01637             9043.50018          3836.21017          39.73723            2.36956             79.86299            
1579.00000          0.21190             0.01568             9034.93037          3832.96997          39.73184            2.36860             79.90653            
1579.10000          0.20765             0.01473             9042.51221          3829.72977          39.80832            2.37070             79.91028            
1579.20000          0.20423             0.01282             9068.81280          3826.48958          39.19827            2.37535             79.83475            
1579.30000          0.20158             0.00982             9093.71547          3823.24938          39.02505            2.38069             79.79524            
1579.40000          0.20034             0.00606             9097.22746          3826.02981          40.18566            2.38494             79.90663            
1579.50000          0.20365             0.00229             9092.03283          3830.58417          40.68270            2.38700             80.02155            
1579.60000          0.21107             -0.00076            9082.60097          3835.13852          40.80418            2.38743             80.11914            
1579.70000          0.21941             -0.00274            9064.91576          3839.69288          41.39607            2.38736             80.27299            
1579.80000          0.22546             -0.00391            9057.25132          3844.24724          40.27081            2.38744             80.34341            
1579.90000          0.22671             -0.00477            9074.25957          3848.80160          38.99901            2.38754             80.19635            
