#----------------------------------------------------------------------------
~VERSION INFORMATION
VERS.            2.0                  :CWLS LOG ASCII STANDARD -VERSION 2.0
WRAP.            NO                   :ONE LINES PER DEPTH STEP
#
#----------------------------------------------------------------------------
~WELL INFORMATION
#MNEM .UNIT      DATA                 :DESCRIPTION OF MNEMONIC
#----------------------------------------------------------------------------
STRT  .m         100.00000            :START DEPTH
STEP  .m         0.00000              :STEP DEPTH
STOP  .m         1727.90010           :STOP DEPTH
NULL  .          -999.25              :NULL VALUE
COMP  .                               :COMPANY
WELL  .          F06-02               :WELL
LOC   .                               :LOCATION - AREA
FLD   .                               :FIELD
CTRY  .                               :COUNTRY
DATE  .                               :WELL DATE
XWELL .m         623167.00000         :X POS
YWELL .m         6076726.00000        :Y POS
#
#----------------------------------------------------------------------------
~CURVE INFORMATION
#
#MNEM                .UNIT                           : CURVE DESCRIPTION
#----------------------------------------------------------------------------
DEPT                 .Meter                          : 1
NPHI                 .V/V                            : 2
DRHO                 .G/C3                           : 3
AI                   .                               : 4
IntVelocity          .                               : 5
GR                   .GAPI                           : 6
RHOB                 .G/C3                           : 7
DT                   .US/F                           : 8
#
#----------------------------------------------------------------------------
~A
# ...
1595.00000          0.26371             0.01647             7887.49582          3478.06816          40.94232            2.26450             87.50819            
1595.10000          0.26091             0.01684             7888.62736          3473.15679          41.55000            2.27082             87.73956            
1595.20000          0.25951             0.01633             7884.05072          3468.24542          41.53217            2.27547             87.97046            
1595.30000          0.26139             0.01531             7864.76153          3463.33406          41.40053            2.27712             88.25005            
1595.40000          0.26702             0.01426             7824.78298          3459.57425          41.54305            2.27479             88.61029            
1595.50000          0.27474             0.01379             7761.79646          3456.07181          41.51929            2.26822             89.07132            
1595.60000          0.28192             0.01442             7689.75444          3452.56937          40.93030            2.25870             89.52837            
1595.70000          0.28617             0.01612             7635.09544          3449.06693          40.16021            2.24933             89.79527            
1595.80000          0.28575             0.01819             7609.59463          3445.56449          39.77931            2.24356             89.86523            
1595.90000          0.28023             0.01979             7613.53688          3442.06205          39.92696            2.24317             89.80301            
1596.00000          0.27189             0.02041             7651.69814          3438.55960          40.41823            2.24756             89.53017            
1596.10000          0.26503             0.02010             7719.78307          3435.05716          41.13280            2.25427             89.00532            
1596.20000          0.26206             0.01919             7794.33630          3431.55472          41.95300            2.26045             88.39554            
1596.30000          0.26248             0.01789             7849.81636          3428.05228          43.01495            2.26424             87.91783            
1596.40000          0.26505             0.01630             7880.87259          3428.83502          44.69952            2.26535             87.61438            
1596.50000          0.26819             0.01443             7893.80500          3430.55752          45.74445            2.26462             87.44289            
1596.60000          0.27034             0.01226             7888.95105          3432.28002          44.18855            2.26289             87.42989            
1596.70000          0.27217             0.00983             7867.96410          3434.00252          41.16497            2.26031             87.56319            
1596.80000          0.27583             0.00739             7838.07634          3435.72502          39.43116            2.25670             87.75642            
1596.90000          0.28170             0.00532             7804.56888          3437.44752          39.61998            2.25217             87.95631            
1597.00000          0.28746             0.00396             7769.70327          3439.17002          40.54655            2.24744             88.16565            
1597.10000          0.29075             0.00328             7735.83464          3440.89252          41.19626            2.24353             88.39728            
1597.20000          0.29124             0.00276             7705.62166          3442.61503          41.49695            2.24090             88.63992            
1597.30000          0.28932             0.00173             7681.76747          3444.33753          41.74241            2.23915             88.84578            
1597.40000          0.28514             0.00002             7666.04732          3442.57176          42.02148            2.23741             88.95879            
1597.50000          0.27882             -0.00202            7658.38176          3440.05550          42.23239            2.23523             88.96130            
1597.60000          0.27056             -0.00376            7657.62963          3437.53924          42.25118            2.23343             88.89812            
1597.70000          0.26140             -0.00475            7663.47922          3435.02298          42.27656            2.23359             88.83662            
1597.80000          0.25338             -0.00487            7676.82729          3432.50672          42.65762            2.23673             88.80707            
1597.90000          0.24884             -0.00414            7696.33565          3429.99046          43.01162            2.24212             88.79542            
1598.00000          0.24871             -0.00271            7713.19336          3427.47420          43.07374            2.24768             88.82103            
1598.10000          0.25198             -0.00091            7713.94986          3424.95795          43.35558            2.25117             88.94998            
1598.20000          0.25618             0.00066             7697.40147          3422.44169          43.57859            2.25111             89.13892            
1598.30000          0.26135             0.00137             7674.73686          3419.92543          43.23071            2.24757             89.26157            
1598.40000          0.26935             0.00105             7654.49745          3415.36563          42.78411            2.24214             89.28140            
1598.50000          0.27755             0.00027             7632.79554          3410.37462          42.64043            2.23685             89.32381            
1598.60000          0.28259             0.00009             7606.00548          3405.38361          42.83380            2.23328             89.49548            
1598.70000          0.28529             0.00131             7588.14422          3400.39260          43.29754            2.23244             89.67244            
1598.80000          0.28599             0.00379             7588.10344          3395.40158          43.41718            2.23418             89.74294            
1598.90000          0.28509             0.00669             7599.77092          3390.41057          42.70426            2.23743             89.73550            
1599.00000          0.28580             0.00910             7609.48908          3385.41956          41.81176            2.24071             89.75224            
1599.10000          0.28917             0.01077             7610.75166          3380.42855          41.46579            2.24319             89.83659            
1599.20000          0.29233             0.01198             7603.79478          3375.43753          41.82735            2.24472             89.98012            
1599.30000          0.29256             0.01310             7587.71898          3370.44652          42.15604            2.24528             90.19313            
1599.40000          0.29111             0.01428             7562.73499          3363.81566          42.24376            2.24409             90.44345            
1599.50000          0.28972             0.01538             7532.14163          3356.84549          42.42048            2.23993             90.64230            
1599.60000          0.28626             0.01610             7492.35532          3349.87532          42.80818            2.23225             90.81120            
1599.70000          0.28134             0.01615             7435.16374          3342.90515          43.29633            2.22163             91.07445            
1599.80000          0.27830             0.01541             7358.13690          3335.93498          43.54646            2.21010             91.55002            
1599.90000          0.27717             0.01410             7280.28176          3328.96481          42.74121            2.19930             92.07694            
