#----------------------------------------------------------------------------
~VERSION INFORMATION
VERS.            2.0                  :CWLS LOG ASCII STANDARD -VERSION 2.0
WRAP.            NO                   :ONE LINES PER DEPTH STEP
#
#----------------------------------------------------------------------------
~WELL INFORMATION
#MNEM .UNIT      DATA                 :DESCRIPTION OF MNEMONIC
#----------------------------------------------------------------------------
STRT  .m         100.00000            :START DEPTH
STEP  .m         0.00000              :STEP DEPTH
STOP  .m         1727.90010           :STOP DEPTH
NULL  .          -999.25              :NULL VALUE
COMP  .                               :COMPANY
WELL  .          F06-02               :WELL
LOC   .                               :LOCATION - AREA
FLD   .                               :FIELD
CTRY  .                               :COUNTRY
DATE  .                               :WELL DATE
XWELL .m         623167.00000         :X POS
YWELL .m         6076726.00000        :Y POS
#
#----------------------------------------------------------------------------
~CURVE INFORMATION
#
#MNEM                .UNIT                           : CURVE DESCRIPTION
#----------------------------------------------------------------------------
DEPT                 .Meter                          : 1
NPHI                 .V/V                            : 2
DRHO                 .G/C3                           : 3
AI                   .                               : 4
IntVelocity          .                               : 5
GR                   .GAPI                           : 6
RHOB                 .G/C3                           : 7
DT                   .US/F                           : 8
#
#----------------------------------------------------------------------------
~A
# ...
1405.00000          -999.25             -999.25             -999.25             2097.15517          -999.25             -999.25             -999.25             
1405.10000          -999.25             -999.25             -999.25             2097.15517          -999.25             -999.25             -999.25             
1405.20000          -999.25             -999.25             -999.25             2097.15517          -999.25             -999.25             -999.25             
1405.30000          -999.25             -999.25             -999.25             2097.15517          -999.25             -999.25             -999.25             
1405.40000          -999.25             -999.25             -999.25             2097.15517          -999.25             -999.25             -999.25             
1405.50000          -999.25             -999.25             -999.25             2097.15517          -999.25             -999.25             -999.25             
1405.60000          -999.25             -999.25             -999.25             2097.15517          -999.25             -999.25             -999.25             
1405.70000          -999.25             -999.25             -999.25             2097.15517          -999.25             -999.25             -999.25             
1405.80000          -999.25             -999.25             -999.25             2097.15517          -999.25             -999.25             -999.25             
1405.90000          -999.25             -999.25             -999.25             2097.15517          -999.25             -999.25             -999.25             
1406.00000          -999.25             -999.25             -999.25             2097.15517          -999.25             -999.25             -999.25             
1406.10000          -999.25             -999.25             -999.25             2097.15517          -999.25             -999.25             -999.25             
1406.20000          -999.25             -999.25             -999.25             2097.15517          -999.25             -999.25             -999.25             
1406.30000          -999.25             -999.25             -999.25             2097.15517          -999.25             -999.25             -999.25             
1406.40000          -999.25             -999.25             -999.25             2095.92885          -999.25             -999.25             -999.25             
1406.50000          -999.25             -999.25             -999.25             2092.19537          -999.25             -999.25             -999.25             
1406.60000          -999.25             -999.25             -999.25             2088.46188          -999.25             -999.25             -999.25             
1406.70000          -999.25             -999.25             -999.25             2084.72840          -999.25             -999.25             -999.25             
1406.80000          -999.25             -999.25             -999.25             2080.99491          -999.25             -999.25             -999.25             
1406.90000          -999.25             -999.25             -999.25             2077.26142          -999.25             -999.25             -999.25             
1407.00000          -999.25             -999.25             -999.25             2073.52794          -999.25             -999.25             -999.25             
1407.10000          -999.25             -999.25             -999.25             2069.79445          -999.25             -999.25             -999.25             
1407.20000          -999.25             0.10537             -999.25             2066.06097          88.78148            1.78552             -999.25             
1407.30000          0.44615             0.09905             3548.44784          2062.32748          90.76942            1.80246             154.82504           
1407.40000          0.45763             0.09770             3516.75215          2057.63407          92.52478            1.80558             156.49112           
1407.50000          0.45977             0.11053             3480.83452          2050.99981          92.87170            1.79744             157.39365           
1407.60000          0.45438             0.13894             3452.88364          2044.36556          92.64043            1.78672             157.72073           
1407.70000          0.44671             0.16924             3444.74868          2037.73130          91.90868            1.78153             157.63406           
1407.80000          0.44132             0.18388             3459.01780          2031.09704          90.65030            1.78332             157.14188           
1407.90000          0.44217             0.17917             3488.90816          2024.46279          90.74263            1.78821             156.22272           
1408.00000          0.44856             0.16706             3529.64715          2017.82853          92.05850            1.79407             154.92581           
1408.10000          0.45541             0.15745             3581.38810          2011.19427          92.32538            1.80330             153.47260           
1408.20000          0.45921             0.15160             3637.96308          2004.56002          90.83185            1.81810             152.32648           
1408.30000          0.46154             0.14500             3689.63538          1997.92576          88.94392            1.83580             151.65497           
1408.40000          0.46504             0.12901             3727.81646          1994.39734          88.09746            1.84964             151.23370           
1408.50000          0.47054             0.10641             3745.95358          1997.07987          88.42763            1.85431             150.88129           
1408.60000          0.48042             0.09408             3744.16350          1999.76240          89.43173            1.85112             150.69357           
1408.70000          0.49262             0.09680             3736.32495          2002.44493          90.25970            1.84760             150.72257           
1408.80000          0.49628             0.10844             3747.86868          2005.12746          89.60037            1.85149             150.57477           
1408.90000          0.48319             0.11724             3786.05549          2007.80999          88.03708            1.86637             150.25357           
1409.00000          0.45811             0.10806             3835.09142          2010.49252          87.34505            1.89037             150.24033           
1409.10000          0.43244             0.08074             3890.09184          2013.17506          87.63532            1.91936             150.38751           
1409.20000          0.41374             0.05099             3947.20569          2015.85759          88.25301            1.94961             150.54691           
1409.30000          0.40505             0.03149             3989.61743          2018.54012          88.75549            1.97553             150.92737           
1409.40000          0.40927             0.02517             4009.18263          2019.91776          88.69231            1.99049             151.32779           
1409.50000          0.42684             0.02790             3997.69632          2018.71379          88.10930            1.98866             151.62360           
1409.60000          0.44974             0.03501             3947.91394          2017.50983          87.44365            1.96973             152.07358           
1409.70000          0.46402             0.05049             3870.72071          2016.30586          86.95645            1.93951             152.72669           
1409.80000          0.46504             0.07784             3801.04744          2015.10189          87.27229            1.91020             153.17609           
1409.90000          0.46081             0.10670             3775.93325          2013.89793          89.41071            1.89417             152.90091           
