#----------------------------------------------------------------------------
~VERSION INFORMATION
VERS.            2.0                  :CWLS LOG ASCII STANDARD -VERSION 2.0
WRAP.            NO                   :ONE LINES PER DEPTH STEP
#
#----------------------------------------------------------------------------
~WELL INFORMATION
#MNEM .UNIT      DATA                 :DESCRIPTION OF MNEMONIC
#----------------------------------------------------------------------------
STRT  .m         100.00000            :START DEPTH
STEP  .m         0.00000              :STEP DEPTH
STOP  .m         1727.90010           :STOP DEPTH
NULL  .          -999.25              :NULL VALUE
COMP  .                               :COMPANY
WELL  .          F06-02               :WELL
LOC   .                               :LOCATION - AREA
FLD   .                               :FIELD
CTRY  .                               :COUNTRY
DATE  .                               :WELL DATE
XWELL .m         623167.00000         :X POS
YWELL .m         6076726.00000        :Y POS
#
#----------------------------------------------------------------------------
~CURVE INFORMATION
#
#MNEM                .UNIT                           : CURVE DESCRIPTION
#----------------------------------------------------------------------------
DEPT                 .Meter                          : 1
NPHI                 .V/V                            : 2
DRHO                 .G/C3                           : 3
AI                   .                               : 4
IntVelocity          .                               : 5
GR                   .GAPI                           : 6
RHOB                 .G/C3                           : 7
DT                   .US/F                           : 8
#
#----------------------------------------------------------------------------
~A
# ...
1660.00010          0.30376             0.00471             6808.75616          3178.67648          42.01476            2.15113             96.29720            
1660.10010          0.30243             0.00408             6741.66405          3170.58123          40.92513            2.14234             96.85808            
1660.20010          0.30455             0.00248             6688.21032          3162.48598          40.34345            2.13404             97.25389            
1660.30010          0.31149             0.00051             6659.89981          3154.39871          40.50223            2.12882             97.42877            
1660.40010          0.32138             -0.00109            6656.79996          3156.25269          40.64754            2.12836             97.45285            
1660.50010          0.33061             -0.00194            6668.98523          3158.10667          40.48534            2.13185             97.43443            
1660.60010          0.33730             -0.00222            6690.00349          3159.96065          40.56345            2.13649             97.33940            
1660.70010          0.34068             -0.00252            6717.72381          3161.81462          40.35200            2.13926             97.06364            
1660.80010          0.34053             -0.00336            6744.07301          3163.66860          39.60549            2.13889             96.66756            
1660.90010          0.33756             -0.00481            6757.21401          3165.52258          39.48228            2.13637             96.36607            
1661.00010          0.33292             -0.00635            6761.17960          3167.37655          40.03397            2.13411             96.20753            
1661.10010          0.32818             -0.00703            6770.74592          3169.23053          40.41615            2.13432             96.08124            
1661.20010          0.32538             -0.00622            6790.68427          3171.08451          40.56536            2.13749             95.94115            
1661.30010          0.32633             -0.00398            6813.53572          3172.93499          40.82713            2.14201             95.82149            
1661.40010          0.33032             -0.00096            6826.85489          3173.82033          41.31950            2.14517             95.77585            
1661.50010          0.33368             0.00215             6824.00513          3174.70567          41.94585            2.14524             95.81902            
1661.60010          0.33265             0.00488             6807.57542          3175.59101          42.64373            2.14217             95.91299            
1661.70010          0.32754             0.00692             6784.24923          3176.47635          42.85073            2.13723             96.02083            
1661.80010          0.32228             0.00814             6761.12102          3177.36169          41.37530            2.13217             96.12096            
1661.90010          0.32041             0.00863             6750.95921          3178.24703          39.44277            2.12891             96.11850            
1662.00010          0.32269             0.00866             6758.94124          3179.13237          38.89737            2.12848             95.98569            
1662.10010          0.32751             0.00854             6770.69614          3180.01771          40.11458            2.13059             95.91385            
1662.20010          0.33006             0.00854             6777.52774          3180.90305          42.29299            2.13389             95.96567            
1662.30010          0.32722             0.00873             6783.30896          3181.81551          44.06648            2.13702             96.02457            
1662.40010          0.32065             0.00892             6789.72082          3186.92603          43.19220            2.13904             96.02457            
1662.50010          0.31495             0.00876             6794.30924          3192.03656          41.50066            2.13948             95.97923            
1662.60010          0.31329             0.00823             6796.51770          3197.14708          41.45892            2.13876             95.91576            
1662.70010          0.31595             0.00795             6800.29557          3202.25760          40.96220            2.13843             95.84804            
1662.80010          0.32017             0.00865             6810.57127          3207.36812          39.71286            2.14010             95.77794            
1662.90010          0.32285             0.01026             6829.03314          3212.47864          39.24149            2.14385             95.68625            
1663.00010          0.32284             0.01157             6851.61199          3217.58917          39.67125            2.14738             95.52814            
1663.10010          0.32069             0.01140             6870.91244          3222.69969          40.27735            2.14817             95.29475            
1663.20010          0.31806             0.00967             6884.44163          3227.81021          40.60820            2.14551             94.98967            
1663.30010          0.31795             0.00751             6901.28174          3233.01965          41.37719            2.14165             94.58740            
1663.40010          0.32110             0.00633             6931.28685          3248.85259          42.17236            2.14036             94.12112            
1663.50010          0.32527             0.00685             6977.36260          3264.68553          41.58167            2.14469             93.68909            
1663.60010          0.32567             0.00862             7040.66266          3280.51848          40.76299            2.15451             93.27167            
1663.70010          0.31932             0.01073             7124.51784          3296.35142          40.43629            2.16794             92.74860            
1663.80010          0.30718             0.01254             7222.69496          3312.18437          40.36803            2.18155             92.06201            
1663.90010          0.29122             0.01409             7313.88886          3328.01731          40.58295            2.19284             91.38480            
1664.00010          0.27753             0.01565             7385.42383          3343.85025          40.92500            2.20065             90.82176            
1664.10010          0.27396             0.01686             7434.41553          3359.68320          40.50120            2.20408             90.36409            
1664.20010          0.28131             0.01702             7457.04029          3375.51614          39.15252            2.20387             90.08118            
1664.30010          0.29423             0.01595             7457.20738          3391.20018          37.58964            2.20219             90.01070            
1664.40010          0.30518             0.01425             7462.90318          3394.65724          39.44541            2.20231             89.94678            
1664.50010          0.31046             0.01250             7487.81703          3398.11431          42.00451            2.20614             89.80353            
1664.60010          0.30925             0.01063             7523.55754          3401.57137          42.68350            2.21185             89.60825            
1664.70010          0.30343             0.00820             7555.07052          3405.02844          42.89826            2.21533             89.37476            
1664.80010          0.29624             0.00524             7575.64288          3408.48551          43.21355            2.21351             89.05894            
1664.90010          0.29135             0.00295             7591.25588          3411.94257          43.40731            2.20740             88.63037            
