#----------------------------------------------------------------------------
~VERSION INFORMATION
VERS.            2.0                  :CWLS LOG ASCII STANDARD -VERSION 2.0
WRAP.            NO                   :ONE LINES PER DEPTH STEP
#
#----------------------------------------------------------------------------
~WELL INFORMATION
#MNEM .UNIT      DATA                 :DESCRIPTION OF MNEMONIC
#----------------------------------------------------------------------------
STRT  .m         100.00000            :START DEPTH
STEP  .m         0.00000              :STEP DEPTH
STOP  .m         1727.90010           :STOP DEPTH
NULL  .          -999.25              :NULL VALUE
COMP  .                               :COMPANY
WELL  .          F06-02               :WELL
LOC   .                               :LOCATION - AREA
FLD   .                               :FIELD
CTRY  .                               :COUNTRY
DATE  .                               :WELL DATE
XWELL .m         623167.00000         :X POS
YWELL .m         6076726.00000        :Y POS
#
#----------------------------------------------------------------------------
~CURVE INFORMATION
#
#MNEM                .UNIT                           : CURVE DESCRIPTION
#----------------------------------------------------------------------------
DEPT                 .Meter                          : 1
NPHI                 .V/V                            : 2
DRHO                 .G/C3                           : 3
AI                   .                               : 4
IntVelocity          .                               : 5
GR                   .GAPI                           : 6
RHOB                 .G/C3                           : 7
DT                   .US/F                           : 8
#
#----------------------------------------------------------------------------
~A
# ...
1680.00010          0.31285             -0.01863            7047.73179          3265.17375          45.81936            2.15754             93.30907            
1680.10010          0.31029             -0.01802            7093.05370          3278.71505          46.30441            2.16179             92.89540            
1680.20010          0.31177             -0.01630            7151.03896          3292.25635          47.20306            2.16991             92.48837            
1680.30010          0.31364             -0.01414            7209.68392          3305.99075          47.86466            2.17887             92.11502            
1680.40010          0.31758             -0.01250            7257.55357          3322.92290          48.10809            2.18442             91.74045            
1680.50010          0.32274             -0.01205            7290.81567          3339.85505          48.39499            2.18380             91.29616            
1680.60010          0.32589             -0.01275            7305.10358          3356.78720          48.47541            2.17722             90.84305            
1680.70010          0.32808             -0.01381            7296.64922          3373.71934          47.20400            2.16795             90.56099            
1680.80010          0.33021             -0.01423            7282.70453          3390.65149          45.20816            2.16091             90.43950            
1680.90010          0.33105             -0.01339            7296.01998          3407.58364          44.37604            2.16033             90.25021            
1681.00010          0.33106             -0.01130            7352.22985          3424.51579          44.91753            2.16790             89.87434            
1681.10010          0.32996             -0.00855            7442.15238          3441.44794          46.22649            2.18240             89.38202            
1681.20010          0.32500             -0.00594            7547.62074          3458.38008          47.65953            2.20093             88.88129            
1681.30010          0.31500             -0.00383            7656.75385          3475.67855          48.18023            2.22126             88.42378            
1681.40010          0.30291             -0.00213            7770.01473          3498.74085          48.07317            2.24207             87.95146            
1681.50010          0.29232             -0.00064            7898.80797          3521.80314          48.38029            2.26295             87.32306            
1681.60010          0.28477             0.00047             8048.47212          3544.86544          48.60372            2.28296             86.45697            
1681.70010          0.28175             0.00076             8211.74056          3567.92774          48.17519            2.29951             85.35226            
1681.80010          0.28199             -0.00008            8376.64139          3590.99004          47.59570            2.31049             84.07175            
1681.90010          0.27924             -0.00168            8518.71216          3614.05234          47.34521            2.31590             82.86307            
1682.00010          0.27056             -0.00319            8630.65461          3637.11464          47.80975            2.31850             81.88023            
1682.10010          0.25936             -0.00372            8735.19897          3660.17694          48.92084            2.32258             81.04233            
1682.20010          0.24885             -0.00290            8842.34933          3683.23924          49.30318            2.33053             80.33441            
1682.30010          0.23982             -0.00105            8938.50753          3703.36658          48.18831            2.34091             79.82408            
1682.40010          0.23336             0.00121             8996.32244          3679.51696          46.38266            2.34892             79.58247            
1682.50010          0.23136             0.00338             8987.18109          3655.66734          45.23223            2.34864             79.65413            
1682.60010          0.23371             0.00513             8888.61712          3631.81772          44.92642            2.33571             80.09398            
1682.70010          0.23899             0.00619             8699.12848          3607.96809          44.59459            2.30971             80.92757            
1682.80010          0.24796             0.00626             8446.88111          3584.11847          43.85677            2.27414             82.06081            
1682.90010          0.26001             0.00528             8162.17101          3560.26885          42.92088            2.23478             83.45355            
1683.00010          0.27138             0.00355             7879.65727          3536.41923          42.10954            2.19932             85.07388            
1683.10010          0.28056             0.00154             7627.81069          3512.56961          41.51988            2.17190             86.78720            
1683.20010          0.28862             -0.00060            7407.40529          3488.71999          41.17456            2.15208             88.55377            
1683.30010          0.29694             -0.00292            7207.17885          3465.08460          41.07567            2.13718             90.38384            
1683.40010          0.30725             -0.00557            7035.17110          3444.51214          40.62292            2.12431             92.03627            
1683.50010          0.31699             -0.00828            6919.65032          3423.93968          39.69585            2.11411             93.12335            
1683.60010          0.32140             -0.01032            6873.40352          3403.36722          39.04500            2.11028             93.58012            
1683.70010          0.32045             -0.01075            6898.82409          3382.79476          38.24851            2.11671             93.51926            
1683.80010          0.31713             -0.00924            6978.29480          3362.22231          36.95711            2.13236             93.13776            
1683.90010          0.31378             -0.00679            7056.51201          3341.64985          36.12734            2.14986             92.86145            
1684.00010          0.31522             -0.00501            7084.66460          3321.07739          36.34764            2.15968             92.91479            
1684.10010          0.32421             -0.00501            7045.50913          3300.50493          37.37794            2.15531             93.24220            
1684.20010          0.33839             -0.00672            6967.10673          3279.93247          37.85758            2.13778             93.52461            
1684.30010          0.35404             -0.00920            6886.20546          3260.59219          38.01839            2.11339             93.54381            
1684.40010          0.36653             -0.01114            6822.78771          3258.09264          38.45923            2.09198             93.45674            
1684.50010          0.37256             -0.01210            6743.52422          3255.59310          38.74683            2.07903             93.96968            
1684.60010          0.36860             -0.01274            6672.70830          3253.09356          38.88364            2.07601             94.82906            
1684.70010          0.35665             -0.01406            6658.51625          3250.59401          39.10924            2.08020             95.22321            
1684.80010          0.34317             -0.01653            6679.30127          3248.09447          39.23812            2.08814             95.28926            
1684.90010          0.33648             -0.01946            6712.62012          3245.59493          39.09969            2.09660             95.20052            
