#----------------------------------------------------------------------------
~VERSION INFORMATION
VERS.            2.0                  :CWLS LOG ASCII STANDARD -VERSION 2.0
WRAP.            NO                   :ONE LINES PER DEPTH STEP
#
#----------------------------------------------------------------------------
~WELL INFORMATION
#MNEM .UNIT      DATA                 :DESCRIPTION OF MNEMONIC
#----------------------------------------------------------------------------
STRT  .m         100.00000            :START DEPTH
STEP  .m         0.00000              :STEP DEPTH
STOP  .m         1727.90010           :STOP DEPTH
NULL  .          -999.25              :NULL VALUE
COMP  .                               :COMPANY
WELL  .          F06-02               :WELL
LOC   .                               :LOCATION - AREA
FLD   .                               :FIELD
CTRY  .                               :COUNTRY
DATE  .                               :WELL DATE
XWELL .m         623167.00000         :X POS
YWELL .m         6076726.00000        :Y POS
#
#----------------------------------------------------------------------------
~CURVE INFORMATION
#
#MNEM                .UNIT                           : CURVE DESCRIPTION
#----------------------------------------------------------------------------
DEPT                 .Meter                          : 1
NPHI                 .V/V                            : 2
DRHO                 .G/C3                           : 3
AI                   .                               : 4
IntVelocity          .                               : 5
GR                   .GAPI                           : 6
RHOB                 .G/C3                           : 7
DT                   .US/F                           : 8
#
#----------------------------------------------------------------------------
~A
# ...
1725.00010          0.37084             0.12104             6725.78622          -999.25             94.45944            2.18976             99.23599            
1725.10010          0.37512             0.12432             6780.36701          -999.25             94.21745            2.19615             98.72441            
1725.20010          0.38153             0.12490             6850.38218          -999.25             94.79927            2.19829             97.81042            
1725.30010          0.38611             0.12431             6921.20256          -999.25             95.55502            2.19999             96.88437            
1725.40010          0.38656             0.12445             7012.81913          -999.25             96.25536            2.20492             95.83319            
1725.50010          0.38445             0.12630             7134.59397          -999.25             96.86226            2.21457             94.60967            
1725.60010          0.37887             0.12957             7266.80340          -999.25             97.80501            2.22799             93.45110            
1725.70010          0.37060             0.13314             7369.45641          -999.25             99.13420            2.24251             92.74995            
1725.80010          0.36511             0.13662             7433.59077          -999.25             99.49867            2.25765             92.57040            
1725.90010          -999.25             0.14152             7480.44308          -999.25             98.00580            2.27674             92.76862            
1726.00010          -999.25             0.15001             7534.36431          -999.25             94.74437            2.30330             93.17921            
1726.10010          -999.25             0.16302             7610.61109          -999.25             91.14459            2.33837             93.65007            
1726.20010          -999.25             0.17676             7692.86167          -999.25             87.78146            2.37276             94.01135            
1726.30010          -999.25             0.18505             7750.80241          -999.25             84.22319            2.39315             94.11069            
1726.40010          -999.25             0.18322             7750.55030          -999.25             80.14020            2.38890             93.94653            
1726.50010          -999.25             0.17095             7677.50258          -999.25             77.04495            2.35982             93.68562            
1726.60010          -999.25             0.15373             7554.60530          -999.25             76.81819            2.31873             93.55194            
1726.70010          -999.25             0.13943             -999.25             -999.25             77.99469            2.28311             -999.25             
1726.80010          -999.25             0.13344             -999.25             -999.25             79.60352            2.26612             -999.25             
1726.90010          -999.25             0.13467             -999.25             -999.25             82.01115            2.26685             -999.25             
1727.00010          -999.25             0.13939             -999.25             -999.25             83.18501            2.27788             -999.25             
1727.10010          -999.25             0.14450             -999.25             -999.25             82.67778            2.29108             -999.25             
1727.20010          -999.25             0.14857             -999.25             -999.25             81.58128            2.30179             -999.25             
1727.30010          -999.25             0.15039             -999.25             -999.25             80.53642            2.30626             -999.25             
1727.40010          -999.25             0.14925             -999.25             -999.25             79.58285            2.30286             -999.25             
1727.50010          -999.25             0.14503             -999.25             -999.25             78.50139            2.29132             -999.25             
1727.60010          -999.25             0.13870             -999.25             -999.25             77.50806            2.27474             -999.25             
1727.70010          -999.25             0.13248             -999.25             -999.25             76.93304            2.25838             -999.25             
1727.80010          -999.25             0.12855             -999.25             -999.25             78.33630            2.24680             -999.25             
1727.90010          -999.25             0.12754             -999.25             -999.25             79.40071            2.24149             -999.25             
