#----------------------------------------------------------------------------
~VERSION INFORMATION
VERS.            2.0                  :CWLS LOG ASCII STANDARD -VERSION 2.0
WRAP.            NO                   :ONE LINES PER DEPTH STEP
#
#----------------------------------------------------------------------------
~WELL INFORMATION
#MNEM .UNIT      DATA                 :DESCRIPTION OF MNEMONIC
#----------------------------------------------------------------------------
STRT  .m         100.00000            :START DEPTH
STEP  .m         0.00000              :STEP DEPTH
STOP  .m         1727.90010           :STOP DEPTH
NULL  .          -999.25              :NULL VALUE
COMP  .                               :COMPANY
WELL  .          F06-02               :WELL
LOC   .                               :LOCATION - AREA
FLD   .                               :FIELD
CTRY  .                               :COUNTRY
DATE  .                               :WELL DATE
XWELL .m         623167.00000         :X POS
YWELL .m         6076726.00000        :Y POS
#
#----------------------------------------------------------------------------
~CURVE INFORMATION
#
#MNEM                .UNIT                           : CURVE DESCRIPTION
#----------------------------------------------------------------------------
DEPT                 .Meter                          : 1
NPHI                 .V/V                            : 2
DRHO                 .G/C3                           : 3
AI                   .                               : 4
IntVelocity          .                               : 5
GR                   .GAPI                           : 6
RHOB                 .G/C3                           : 7
DT                   .US/F                           : 8
#
#----------------------------------------------------------------------------
~A
# ...
1534.99990          0.23179             0.00099             8119.23903          3486.31772          41.51846            2.33027             87.47949            
1535.09990          0.23392             0.00086             8116.91206          3482.84956          41.92651            2.32992             87.49116            
1535.19990          0.23866             0.00256             8109.44781          3479.38139          41.50916            2.32804             87.50130            
1535.29990          0.24304             0.00562             8088.67506          3475.91323          40.82874            2.32457             87.59537            
1535.39990          0.24665             0.00950             8055.65823          3473.32574          40.81846            2.32094             87.81677            
1535.49990          0.24918             0.01354             8029.86097          3471.21686          41.60657            2.31959             88.04788            
1535.59990          0.24879             0.01709             8021.82325          3469.10799          42.05414            2.32215             88.23334            
1535.69990          0.24649             0.01947             8030.79235          3466.99911          41.88245            2.32787             88.35193            
1535.79990          0.24467             0.02043             8049.73893          3464.89024          41.79659            2.33428             88.38669            
1535.89990          0.24275             0.02014             8065.50251          3462.78136          42.40133            2.33882             88.38521            
1535.99990          0.24040             0.01869             8068.58274          3460.67249          42.89635            2.33969             88.38444            
1536.09990          0.23958             0.01593             8057.59501          3458.56361          42.36634            2.33633             88.37794            
1536.19990          0.24282             0.01164             8033.62637          3456.45474          42.29361            2.32909             88.36674            
1536.29990          0.24867             0.00639             8000.58943          3454.34586          42.83668            2.32009             88.38907            
1536.39990          0.25366             0.00144             7964.97875          3453.63397          42.82106            2.31250             88.49353            
1536.49990          0.25620             -0.00188            7941.47217          3453.67199          43.00227            2.30921             88.62920            
1536.59990          0.25463             -0.00270            7944.36625          3453.71000          43.77012            2.31150             88.68477            
1536.69990          0.24846             -0.00112            7978.90184          3453.74802          44.53638            2.31820             88.55685            
1536.79990          0.24266             0.00182             8023.51648          3453.78603          44.66335            2.32583             88.35432            
1536.89990          0.24064             0.00482             8057.01246          3453.82405          44.24071            2.33102             88.18338            
1536.99990          0.24157             0.00711             8075.11973          3453.86206          43.66767            2.33243             88.03871            
1537.09990          0.24437             0.00837             8087.29908          3453.90007          42.50094            2.33132             87.86459            
1537.19990          0.24729             0.00865             8103.15162          3453.93809          41.02931            2.33024             87.65204            
1537.29990          0.24809             0.00808             8119.18957          3453.97610          41.28846            2.33051             87.48892            
1537.39990          0.24533             0.00692             8126.83641          3452.45750          41.71156            2.33145             87.44182            
1537.49990          0.24244             0.00556             8121.27234          3450.11359          41.07823            2.33161             87.50792            
1537.59990          0.24534             0.00461             8107.19028          3447.76967          40.50284            2.33013             87.60413            
1537.69990          0.25234             0.00448             8080.31801          3445.42576          40.42690            2.32743             87.79373            
1537.79990          0.26123             0.00511             8032.63795          3443.08184          40.75407            2.32444             88.20148            
1537.89990          0.27318             0.00571             7979.38213          3440.73792          41.61093            2.32171             88.68556            
1537.99990          0.28017             0.00552             7934.48779          3438.39401          42.31013            2.31859             89.06781            
1538.09990          0.27777             0.00445             7902.47330          3436.05009          42.36714            2.31414             89.25700            
1538.19990          0.27455             0.00326             7873.37345          3433.70618          42.84405            2.30892             89.38451            
1538.29990          0.27202             0.00267             7848.82767          3431.36226          43.23674            2.30425             89.48288            
1538.39990          0.26794             0.00304             7847.42808          3432.97891          42.57842            2.30270             89.43868            
1538.49990          0.26554             0.00400             7866.87883          3436.66953          41.57146            2.30557             89.32866            
1538.59990          0.26355             0.00483             7902.02699          3440.36014          40.79873            2.31212             89.18405            
1538.69990          0.25936             0.00511             7951.23157          3444.05076          40.35680            2.32002             88.93480            
1538.79990          0.25689             0.00497             8003.22064          3447.74138          40.17787            2.32721             88.63106            
1538.89990          0.25830             0.00487             8049.42313          3451.43200          40.22958            2.33234             88.31654            
1538.99990          0.26205             0.00496             8087.05278          3455.12262          40.63580            2.33471             87.99489            
1539.09990          0.26742             0.00496             8106.38449          3458.81324          41.45348            2.33411             87.76248            
1539.19990          0.27042             0.00461             8101.81188          3462.50386          42.28349            2.33063             87.68117            
1539.29990          0.26688             0.00391             8074.66604          3466.19448          42.55707            2.32532             87.77565            
1539.39990          0.25935             0.00297             8034.62921          3467.08966          43.10002            2.31960             87.99567            
1539.49990          0.25217             0.00184             7992.73653          3466.53913          44.16769            2.31494             88.27940            
1539.59990          0.24819             0.00041             7958.11471          3465.98860          44.87556            2.31188             88.54634            
1539.69990          0.25063             -0.00150            7941.00614          3465.43807          44.59464            2.30996             88.66322            
1539.79990          0.25865             -0.00370            7944.14369          3464.88754          43.52720            2.30878             88.58301            
1539.89990          0.26583             -0.00566            7954.72191          3464.33701          42.53666            2.30815             88.44115            
