#----------------------------------------------------------------------------
~VERSION INFORMATION
VERS.            2.0                  :CWLS LOG ASCII STANDARD -VERSION 2.0
WRAP.            NO                   :ONE LINES PER DEPTH STEP
#
#----------------------------------------------------------------------------
~WELL INFORMATION
#MNEM .UNIT      DATA                 :DESCRIPTION OF MNEMONIC
#----------------------------------------------------------------------------
STRT  .m         100.00000            :START DEPTH
STEP  .m         0.00000              :STEP DEPTH
STOP  .m         1727.90010           :STOP DEPTH
NULL  .          -999.25              :NULL VALUE
COMP  .                               :COMPANY
WELL  .          F06-02               :WELL
LOC   .                               :LOCATION - AREA
FLD   .                               :FIELD
CTRY  .                               :COUNTRY
DATE  .                               :WELL DATE
XWELL .m         623167.00000         :X POS
YWELL .m         6076726.00000        :Y POS
#
#----------------------------------------------------------------------------
~CURVE INFORMATION
#
#MNEM                .UNIT                           : CURVE DESCRIPTION
#----------------------------------------------------------------------------
DEPT                 .Meter                          : 1
NPHI                 .V/V                            : 2
DRHO                 .G/C3                           : 3
AI                   .                               : 4
IntVelocity          .                               : 5
GR                   .GAPI                           : 6
RHOB                 .G/C3                           : 7
DT                   .US/F                           : 8
#
#----------------------------------------------------------------------------
~A
# ...
1555.00000          0.21121             0.00865             8408.34703          3539.34369          44.55033            2.37025             85.92065            
1555.10000          0.21317             0.00637             8386.58513          3537.58807          44.54360            2.37134             86.18336            
1555.20000          0.21841             0.00537             8361.51843          3535.83244          44.27903            2.37050             86.41097            
1555.30000          0.22605             0.00578             8327.27916          3534.07681          44.55439            2.36644             86.61769            
1555.40000          0.23478             0.00728             8284.95647          3533.09603          44.90544            2.35991             86.81993            
1555.50000          0.24301             0.00935             8249.96825          3532.43943          44.81161            2.35344             86.94936            
1555.60000          0.24909             0.01158             8239.39439          3531.78282          44.55244            2.34982             86.92706            
1555.70000          0.25136             0.01356             8252.97521          3531.12621          43.96692            2.35044             86.80673            
1555.80000          0.25020             0.01495             8276.56898          3530.46961          42.74190            2.35427             86.70021            
1555.90000          0.24803             0.01550             8296.38847          3529.81300          41.53448            2.35860             86.65239            
1556.00000          0.24633             0.01511             8303.79408          3529.15639          42.03234            2.36063             86.64973            
1556.10000          0.24467             0.01391             8295.98147          3528.49979          44.01579            2.35911             86.67523            
1556.20000          0.24248             0.01212             8275.92316          3527.84318          45.01147            2.35471             86.72315            
1556.30000          0.24084             0.01000             8253.53766          3527.18658          44.44622            2.34946             86.76485            
1556.40000          0.24104             0.00765             8238.79044          3529.85085          43.42052            2.34521             86.76259            
1556.50000          0.24263             0.00523             8234.85068          3533.88576          42.82610            2.34279             86.71460            
1556.60000          0.24353             0.00293             8236.32624          3537.92067          42.52213            2.34194             86.66757            
1556.70000          0.24288             0.00109             8241.77906          3541.95558          42.27446            2.34189             86.60838            
1556.80000          0.24153             0.00012             8260.21376          3545.99049          42.40418            2.34194             86.41698            
1556.90000          0.23949             0.00018             8290.44256          3550.02540          42.56107            2.34163             86.09067            
1557.00000          0.23861             0.00112             8318.39813          3554.06031          42.39400            2.34083             85.77177            
1557.10000          0.24249             0.00251             8325.43672          3558.09522          42.29675            2.33977             85.66078            
1557.20000          0.24847             0.00387             8313.14281          3562.13013          42.11636            2.33885             85.75351            
1557.30000          0.25200             0.00506             8294.14054          3566.16504          41.62232            2.33828             85.92896            
1557.40000          0.25245             0.00615             8279.95711          3569.85804          41.37213            2.33827             86.07574            
1557.50000          0.24953             0.00734             8277.85294          3573.41182          41.33076            2.33925             86.13382            
1557.60000          0.24315             0.00876             8295.30421          3576.96561          41.25930            2.34194             86.05135            
1557.70000          0.23493             0.01032             8333.96621          3580.51939          41.47993            2.34686             85.83231            
1557.80000          0.22781             0.01165             8391.19201          3584.07318          41.93503            2.35394             85.50391            
1557.90000          0.22361             0.01203             8454.14166          3587.62696          42.33947            2.36144             85.13779            
1558.00000          0.22126             0.01109             8505.20847          3591.18075          42.64456            2.36754             84.84525            
1558.10000          0.22119             0.00909             8535.34046          3594.73454          42.87934            2.37133             84.68085            
1558.20000          0.22396             0.00684             8543.73248          3598.28832          43.02268            2.37285             84.65193            
1558.30000          0.22774             0.00510             8542.11454          3601.84211          43.12197            2.37322             84.68117            
1558.40000          0.23111             0.00438             8533.05625          3603.28310          43.44214            2.37340             84.77763            
1558.50000          0.23456             0.00444             8507.77066          3603.87557          44.34119            2.37321             85.02283            
1558.60000          0.23926             0.00464             8477.41786          3604.46804          44.92743            2.37131             85.25890            
1558.70000          0.24458             0.00445             8454.75896          3605.06050          44.90661            2.36661             85.31792            
1558.80000          0.24915             0.00379             8445.95958          3605.65297          44.66969            2.35944             85.14798            
1558.90000          0.25158             0.00288             8451.31152          3606.24544          44.36337            2.35139             84.80370            
1559.00000          0.24955             0.00229             8469.71142          3606.83790          43.70652            2.34585             84.42035            
1559.10000          0.24180             0.00257             8491.88047          3607.43037          41.35944            2.34551             84.18747            
1559.20000          0.23291             0.00392             8518.55724          3608.02283          40.05897            2.35158             84.14116            
1559.30000          0.22744             0.00585             8545.34990          3608.61530          40.81902            2.36146             84.22965            
1559.40000          0.22512             0.00774             8563.90151          3608.54795          41.27903            2.37127             84.39644            
1559.50000          0.22799             0.00884             8565.83965          3608.21923          42.22273            2.37636             84.55843            
1559.60000          0.23458             0.00872             8542.60376          3607.89052          44.33559            2.37498             84.73926            
1559.70000          0.23947             0.00754             8482.99176          3607.56180          44.43575            2.36874             85.11064            
1559.80000          0.24131             0.00608             8420.60675          3607.23308          42.52315            2.36197             85.49585            
1559.90000          0.24088             0.00502             8398.00362          3606.90436          40.10432            2.35839             85.59610            
