#----------------------------------------------------------------------------
~VERSION INFORMATION
VERS.            2.0                  :CWLS LOG ASCII STANDARD -VERSION 2.0
WRAP.            NO                   :ONE LINES PER DEPTH STEP
#
#----------------------------------------------------------------------------
~WELL INFORMATION
#MNEM .UNIT      DATA                 :DESCRIPTION OF MNEMONIC
#----------------------------------------------------------------------------
STRT  .m         100.00000            :START DEPTH
STEP  .m         0.00000              :STEP DEPTH
STOP  .m         1727.90010           :STOP DEPTH
NULL  .          -999.25              :NULL VALUE
COMP  .                               :COMPANY
WELL  .          F06-02               :WELL
LOC   .                               :LOCATION - AREA
FLD   .                               :FIELD
CTRY  .                               :COUNTRY
DATE  .                               :WELL DATE
XWELL .m         623167.00000         :X POS
YWELL .m         6076726.00000        :Y POS
#
#----------------------------------------------------------------------------
~CURVE INFORMATION
#
#MNEM                .UNIT                           : CURVE DESCRIPTION
#----------------------------------------------------------------------------
DEPT                 .Meter                          : 1
NPHI                 .V/V                            : 2
DRHO                 .G/C3                           : 3
AI                   .                               : 4
IntVelocity          .                               : 5
GR                   .GAPI                           : 6
RHOB                 .G/C3                           : 7
DT                   .US/F                           : 8
#
#----------------------------------------------------------------------------
~A
# ...
1490.00010          0.29023             0.00462             7817.74245          3453.56215          40.65969            2.28737             89.18060            
1490.10010          0.28512             0.00422             7865.73707          3452.57382          40.53014            2.28656             88.60490            
1490.20010          0.27553             0.00448             7930.52915          3451.58548          39.87259            2.28682             87.89104            
1490.30010          0.26555             0.00558             7992.93803          3450.59715          39.20503            2.28933             87.30046            
1490.40010          0.25743             0.00743             8034.72092          3449.69110          39.36740            2.29502             87.06252            
1490.50010          0.25062             0.00962             8061.77408          3448.85994          39.93596            2.30349             87.09051            
1490.60010          0.24560             0.01161             8094.03177          3448.02878          40.61939            2.31257             87.08528            
1490.70010          0.24383             0.01291             8136.55043          3447.19761          41.63646            2.31961             86.89389            
1490.80010          0.24444             0.01321             8170.56547          3446.36645          42.33594            2.32328             86.66924            
1490.90010          0.24527             0.01254             8176.73806          3445.53529          42.29262            2.32415             86.63594            
1491.00010          0.24563             0.01147             8154.90415          3444.70412          42.10734            2.32451             86.88173            
1491.10010          0.24604             0.01075             8118.19003          3443.87296          42.17101            2.32696             87.36633            
1491.20010          0.24595             0.01078             8087.55909          3443.04179          42.41624            2.33238             87.90172            
1491.30010          0.24416             0.01131             8071.95858          3442.21063          42.84071            2.33935             88.33487            
1491.40010          0.24106             0.01162             8048.47082          3436.24781          43.52144            2.34470             88.79500            
1491.50010          0.23802             0.01116             7996.64410          3425.66757          44.33844            2.34568             89.40776            
1491.60010          0.23618             0.01000             7924.95632          3415.08734          45.08258            2.34206             90.07745            
1491.70010          0.23711             0.00875             7848.21282          3404.50711          45.76176            2.33663             90.74747            
1491.80010          0.24202             0.00822             7783.29700          3393.92687          46.29808            2.33356             91.38396            
1491.90010          0.24937             0.00875             7750.77736          3383.34664          46.42999            2.33523             91.83328            
1492.00010          0.25499             0.00974             7749.76349          3372.76641          46.22966            2.34013             92.03786            
1492.10010          0.25661             0.01032             7761.67123          3362.18617          45.93498            2.34406             92.05102            
1492.20010          0.25566             0.01019             7774.07367          3351.60594          45.67756            2.34356             91.88457            
1492.30010          0.25400             0.00973             7783.82187          3341.02571          45.65662            2.33857             91.57417            
1492.40010          0.25288             0.00960             7794.45375          3339.19907          45.60769            2.33238             91.20697            
1492.50010          0.25294             0.01019             7813.24481          3345.16060          44.96165            2.32902             90.85646            
1492.60010          0.25300             0.01117             7846.01340          3351.12212          44.19981            2.32973             90.50462            
1492.70010          0.25193             0.01183             7886.81594          3357.08365          43.82782            2.33225             90.13402            
1492.80010          0.25048             0.01182             7916.85148          3363.04518          43.38351            2.33305             89.82286            
1492.90010          0.24954             0.01142             7923.98468          3369.00671          42.65478            2.32990             89.62060            
1493.00010          0.24934             0.01126             7907.84557          3374.96823          42.02935            2.32319             89.54507            
1493.10010          0.24975             0.01185             7875.27876          3380.92976          42.03670            2.31523             89.60725            
1493.20010          0.25051             0.01320             7838.28193          3386.89129          42.83414            2.30851             89.76904            
1493.30010          0.25135             0.01462             7805.84475          3392.85281          44.05650            2.30463             89.99042            
1493.40010          0.25259             0.01539             7779.99465          3396.79272          44.96010            2.30375             90.25487            
1493.50010          0.25526             0.01544             7767.66579          3398.95413          45.23220            2.30564             90.47252            
1493.60010          0.25818             0.01535             7780.39100          3401.11555          45.08025            2.31055             90.51666            
1493.70010          0.25826             0.01596             7818.56803          3403.27696          45.04131            2.31894             90.40164            
1493.80010          0.25500             0.01772             7870.20906          3405.43837          45.08878            2.33050             90.25624            
1493.90010          0.25032             0.02014             7915.85451          3407.59978          45.16555            2.34228             90.18958            
1494.00010          0.24566             0.02216             7943.76562          3409.76119          45.92062            2.35031             90.18060            
1494.10010          0.24384             0.02293             7941.59102          3411.92261          46.50133            2.35117             90.23834            
1494.20010          0.24639             0.02255             7911.15769          3414.08402          45.93288            2.34506             90.35019            
1494.30010          0.25212             0.02190             7884.27852          3416.24543          45.27574            2.33571             90.29655            
1494.40010          0.25915             0.02209             7885.53722          3422.21439          45.65019            2.32911             90.02699            
1494.50010          0.26586             0.02368             7914.25723          3431.49541          47.16003            2.32884             89.68990            
1494.60010          0.26996             0.02613             7960.65533          3440.77644          47.45142            2.33402             89.36556            
1494.70010          0.26913             0.02794             8014.47004          3450.05747          45.96888            2.33979             88.98520            
1494.80010          0.26362             0.02792             8077.54072          3459.33849          43.29069            2.34177             88.36491            
1494.90010          0.25630             0.02584             8132.41858          3468.61952          40.99068            2.33857             87.64873            
