#----------------------------------------------------------------------------
~VERSION INFORMATION
VERS.            2.0                  :CWLS LOG ASCII STANDARD -VERSION 2.0
WRAP.            NO                   :ONE LINES PER DEPTH STEP
#
#----------------------------------------------------------------------------
~WELL INFORMATION
#MNEM .UNIT      DATA                 :DESCRIPTION OF MNEMONIC
#----------------------------------------------------------------------------
STRT  .m         100.00000            :START DEPTH
STEP  .m         0.00000              :STEP DEPTH
STOP  .m         1727.90010           :STOP DEPTH
NULL  .          -999.25              :NULL VALUE
COMP  .                               :COMPANY
WELL  .          F06-02               :WELL
LOC   .                               :LOCATION - AREA
FLD   .                               :FIELD
CTRY  .                               :COUNTRY
DATE  .                               :WELL DATE
XWELL .m         623167.00000         :X POS
YWELL .m         6076726.00000        :Y POS
#
#----------------------------------------------------------------------------
~CURVE INFORMATION
#
#MNEM                .UNIT                           : CURVE DESCRIPTION
#----------------------------------------------------------------------------
DEPT                 .Meter                          : 1
NPHI                 .V/V                            : 2
DRHO                 .G/C3                           : 3
AI                   .                               : 4
IntVelocity          .                               : 5
GR                   .GAPI                           : 6
RHOB                 .G/C3                           : 7
DT                   .US/F                           : 8
#
#----------------------------------------------------------------------------
~A
# ...
1450.00010          0.26090             0.00865             7201.27618          3123.67962          44.23824            2.30649             97.62419            
1450.10010          0.26438             0.01077             7186.80279          3123.75379          44.34774            2.31129             98.02437            
1450.20010          0.26706             0.01267             7168.92823          3123.82795          44.31811            2.31100             98.25653            
1450.30010          0.26751             0.01443             7148.00143          3123.90212          44.54688            2.30685             98.36697            
1450.40010          0.26656             0.01559             7127.32394          3125.26323          45.10949            2.30136             98.41779            
1450.50010          0.26466             0.01546             7113.02678          3128.35153          45.70280            2.29635             98.40067            
1450.60010          0.26165             0.01380             7111.79977          3131.43984          46.17444            2.29226             98.24252            
1450.70010          0.25895             0.01108             7121.71888          3134.52814          46.81387            2.28880             97.95778            
1450.80010          0.25637             0.00809             7135.78000          3137.61645          47.28123            2.28583             97.63785            
1450.90010          0.25218             0.00567             7151.15964          3140.70475          46.73824            2.28392             97.34650            
1451.00010          0.24746             0.00436             7174.93433          3143.79306          45.81245            2.28395             97.02499            
1451.10010          0.24389             0.00428             7210.22599          3146.88136          45.28182            2.28666             96.66473            
1451.20010          0.24166             0.00519             7247.05249          3149.96967          44.98329            2.29217             96.40501            
1451.30010          0.24134             0.00676             7283.23392          3153.05797          44.46957            2.30014             96.25989            
1451.40010          0.24334             0.00869             7319.63465          3157.08430          44.04630            2.30958             96.17407            
1451.50010          0.24600             0.01070             7354.83290          3162.35829          44.59533            2.31941             96.12118            
1451.60010          0.24555             0.01259             7388.57016          3167.63229          45.34936            2.32878             96.06886            
1451.70010          0.24106             0.01419             7415.10575          3172.90629          45.39937            2.33654             96.04430            
1451.80010          0.23579             0.01551             7426.23585          3178.18029          44.81963            2.34217             96.13130            
1451.90010          0.23347             0.01663             7427.63233          3183.45428          44.00522            2.34553             96.25107            
1452.00010          0.23518             0.01747             7428.55208          3188.72828          43.23064            2.34622             96.26738            
1452.10010          0.23943             0.01775             7428.32290          3194.00228          42.86617            2.34360             96.16301            
1452.20010          0.24319             0.01716             7426.27565          3199.27628          43.96102            2.33760             95.94305            
1452.30010          0.24504             0.01568             7429.26099          3204.55027          46.12485            2.32941             95.56870            
1452.40010          0.24571             0.01367             7446.16782          3212.23457          44.44890            2.32131             95.01985            
1452.50010          0.24549             0.01200             7477.40674          3223.09623          41.94865            2.31624             94.41658            
1452.60010          0.24422             0.01139             7519.38791          3233.95789          42.15999            2.31557             93.86204            
1452.70010          0.24205             0.01186             7574.54286          3244.81955          41.59843            2.31850             93.29672            
1452.80010          0.24080             0.01296             7630.38615          3255.68120          40.56550            2.32196             92.75194            
1452.90010          0.24187             0.01414             7665.88542          3266.54286          41.08773            2.32252             92.34473            
1453.00010          0.24554             0.01513             7667.93761          3277.40452          42.50398            2.31829             92.15207            
1453.10010          0.25288             0.01564             7640.10678          3288.26618          43.29813            2.31016             92.16333            
1453.20010          0.26275             0.01525             7589.84027          3299.12783          42.60686            2.29926             92.33598            
1453.30010          0.26750             0.01348             7528.96239          3309.98949          42.49885            2.28719             92.59380            
1453.40010          0.26652             0.01042             7469.07461          3318.36552          43.07500            2.27549             92.85864            
1453.50010          0.26454             0.00656             7422.33015          3323.49408          43.10110            2.26579             93.04549            
1453.60010          0.26214             0.00289             7398.58822          3328.62265          42.80158            2.26084             93.13977            
1453.70010          0.25909             0.00040             7406.56170          3333.75122          42.70093            2.26207             93.09041            
1453.80010          0.25650             -0.00053            7465.18223          3338.87978          43.20306            2.26997             92.68188            
1453.90010          0.25508             -0.00033            7554.36969          3344.00835          43.13813            2.28176             92.06317            
1454.00010          0.25350             0.00015             7647.08624          3349.13692          42.35426            2.29451             91.45523            
1454.10010          0.25074             0.00052             7698.93648          3354.26549          41.99297            2.30482             91.24744            
1454.20010          0.24992             0.00105             7727.96444          3359.39405          42.08377            2.31228             91.19888            
1454.30010          0.24899             0.00237             7767.12172          3364.52262          42.40413            2.31866             90.98952            
1454.40010          0.24222             0.00480             7825.32645          3372.64944          43.42133            2.32571             90.58749            
1454.50010          0.23720             0.00783             7882.72473          3384.65857          44.20003            2.33381             90.24120            
1454.60010          0.23723             0.01050             7926.57050          3396.66770          44.34125            2.34266             90.08234            
1454.70010          0.23558             0.01203             7970.73501          3408.67684          44.74958            2.35163             89.92595            
1454.80010          0.23359             0.01257             8028.49525          3420.68597          45.20993            2.36151             89.65434            
1454.90010          0.23365             0.01244             8095.82156          3432.69511          45.14735            2.37160             89.28845            
