#----------------------------------------------------------------------------
~VERSION INFORMATION
VERS.            2.0                  :CWLS LOG ASCII STANDARD -VERSION 2.0
WRAP.            NO                   :ONE LINES PER DEPTH STEP
#
#----------------------------------------------------------------------------
~WELL INFORMATION
#MNEM .UNIT      DATA                 :DESCRIPTION OF MNEMONIC
#----------------------------------------------------------------------------
STRT  .m         100.00000            :START DEPTH
STEP  .m         0.00000              :STEP DEPTH
STOP  .m         1727.90010           :STOP DEPTH
NULL  .          -999.25              :NULL VALUE
COMP  .                               :COMPANY
WELL  .          F06-02               :WELL
LOC   .                               :LOCATION - AREA
FLD   .                               :FIELD
CTRY  .                               :COUNTRY
DATE  .                               :WELL DATE
XWELL .m         623167.00000         :X POS
YWELL .m         6076726.00000        :Y POS
#
#----------------------------------------------------------------------------
~CURVE INFORMATION
#
#MNEM                .UNIT                           : CURVE DESCRIPTION
#----------------------------------------------------------------------------
DEPT                 .Meter                          : 1
NPHI                 .V/V                            : 2
DRHO                 .G/C3                           : 3
AI                   .                               : 4
IntVelocity          .                               : 5
GR                   .GAPI                           : 6
RHOB                 .G/C3                           : 7
DT                   .US/F                           : 8
#
#----------------------------------------------------------------------------
~A
# ...
1640.00000          0.28671             0.00586             7335.58541          3270.58620          40.85897            2.23482             92.85852            
1640.10000          0.28288             0.00476             7314.84983          3267.22354          41.90405            2.23397             93.08646            
1640.20000          0.28151             0.00421             7298.77023          3263.86088          42.90424            2.23448             93.31291            
1640.30000          0.28249             0.00469             7290.74073          3260.49822          43.68796            2.23586             93.47337            
1640.40000          0.28764             0.00594             7285.40702          3253.63829          44.08270            2.23656             93.57126            
1640.50000          0.29749             0.00734             7276.58074          3246.56955          43.57278            2.23456             93.60081            
1640.60000          0.30736             0.00833             7255.17686          3239.50082          42.67017            2.22852             93.62324            
1640.70000          0.31398             0.00863             7216.65675          3232.43208          41.80413            2.21873             93.70949            
1640.80000          0.31677             0.00826             7164.66124          3225.36335          40.93688            2.20706             93.89322            
1640.90000          0.31378             0.00741             7109.91359          3218.29461          40.38191            2.19682             94.17697            
1641.00000          0.30652             0.00640             7060.23638          3211.22587          39.93557            2.19060             94.57114            
1641.10000          0.29996             0.00566             7014.99580          3204.15714          39.56466            2.18936             95.12703            
1641.20000          0.29573             0.00555             6963.31437          3197.08840          41.12474            2.19166             95.93413            
1641.30000          0.29342             0.00604             6902.97197          3190.01967          44.06255            2.19440             96.89328            
1641.40000          0.29429             0.00667             6848.90260          3184.29829          45.34490            2.19394             97.63779            
1641.50000          0.30162             0.00687             6794.65360          3178.65312          45.33517            2.18812             98.15653            
1641.60000          0.31612             0.00635             6735.93649          3173.00795          45.31559            2.17684             98.50146            
1641.70000          0.33349             0.00533             6689.77615          3167.36278          45.29427            2.16310             98.55516            
1641.80000          0.34881             0.00441             6663.69920          3161.71761          43.76550            2.15105             98.39003            
1641.90000          0.35494             0.00422             6665.30615          3156.07245          40.93049            2.14535             98.10561            
1642.00000          0.34852             0.00488             6698.28720          3150.42728          39.23575            2.14758             97.72371            
1642.10000          0.33522             0.00610             6751.97162          3144.78211          38.81609            2.15626             97.33887            
1642.20000          0.32231             0.00746             6801.01040          3139.13694          38.90240            2.16720             97.12712            
1642.30000          0.31129             0.00854             6822.19009          3133.49177          39.05380            2.17588             97.21321            
1642.40000          0.30574             0.00895             6807.64933          3135.08974          38.80426            2.17861             97.54344            
1642.50000          0.30609             0.00833             6762.47670          3137.07476          38.34290            2.17372             97.97426            
1642.60000          0.30771             0.00664             6700.19801          3139.05979          40.19460            2.16205             98.35428            
1642.70000          0.31253             0.00438             6642.83394          3141.04482          42.48795            2.14814             98.56528            
1642.80000          0.32100             0.00224             6612.07731          3143.02984          43.24074            2.13734             98.52591            
1642.90000          0.32743             0.00071             6622.70319          3145.01487          41.79208            2.13339             98.18613            
1643.00000          0.32969             0.00017             6675.40952          3146.99990          39.76605            2.13668             97.56097            
1643.10000          0.32974             0.00065             6755.97275          3148.98492          38.39269            2.14382             96.71962            
1643.20000          0.32778             0.00205             6829.30671          3150.96995          38.19448            2.15088             95.99631            
1643.30000          0.32629             0.00385             6871.45989          3152.95498          39.21030            2.15452             95.56879            
1643.40000          0.32726             0.00507             6883.20367          3156.43538          41.39475            2.15390             95.37819            
1643.50000          0.32917             0.00485             6878.34774          3159.99106          41.49226            2.14986             95.26663            
1643.60000          0.32966             0.00312             6867.62136          3163.54673          40.13084            2.14504             95.20142            
1643.70000          0.32806             0.00056             6850.77291          3167.10240          39.59997            2.14164             95.28455            
1643.80000          0.32460             -0.00159            6832.51560          3170.65807          40.17789            2.14133             95.52528            
1643.90000          0.32571             -0.00227            6822.34748          3174.21374          41.15960            2.14423             95.79691            
1644.00000          0.33544             -0.00125            6830.33483          3177.76941          42.04853            2.14919             95.90622            
1644.10000          0.34522             0.00101             6838.12780          3181.32509          41.98924            2.15423             96.02197            
1644.20000          0.35047             0.00338             6837.68213          3184.88076          41.26643            2.15722             96.16156            
1644.30000          0.35355             0.00500             6847.35750          3188.43643          40.72310            2.15742             96.03436            
1644.40000          0.34841             0.00538             6856.89265          3197.56702          40.75392            2.15557             95.81840            
1644.50000          0.33557             0.00488             6858.75094          3206.96100          40.96333            2.15339             95.69588            
1644.60000          0.32376             0.00406             6861.21870          3216.35498          40.59600            2.15221             95.60899            
1644.70000          0.31521             0.00350             6864.17007          3225.74896          40.36652            2.15219             95.56686            
1644.80000          0.31088             0.00340             6871.74856          3235.14294          40.69614            2.15263             95.48090            
1644.90000          0.31507             0.00340             6899.52716          3244.53692          40.76969            2.15238             95.08534            
