#----------------------------------------------------------------------------
~VERSION INFORMATION
VERS.            2.0                  :CWLS LOG ASCII STANDARD -VERSION 2.0
WRAP.            NO                   :ONE LINES PER DEPTH STEP
#
#----------------------------------------------------------------------------
~WELL INFORMATION
#MNEM .UNIT      DATA                 :DESCRIPTION OF MNEMONIC
#----------------------------------------------------------------------------
STRT  .m         100.00000            :START DEPTH
STEP  .m         0.00000              :STEP DEPTH
STOP  .m         1727.90010           :STOP DEPTH
NULL  .          -999.25              :NULL VALUE
COMP  .                               :COMPANY
WELL  .          F06-02               :WELL
LOC   .                               :LOCATION - AREA
FLD   .                               :FIELD
CTRY  .                               :COUNTRY
DATE  .                               :WELL DATE
XWELL .m         623167.00000         :X POS
YWELL .m         6076726.00000        :Y POS
#
#----------------------------------------------------------------------------
~CURVE INFORMATION
#
#MNEM                .UNIT                           : CURVE DESCRIPTION
#----------------------------------------------------------------------------
DEPT                 .Meter                          : 1
NPHI                 .V/V                            : 2
DRHO                 .G/C3                           : 3
AI                   .                               : 4
IntVelocity          .                               : 5
GR                   .GAPI                           : 6
RHOB                 .G/C3                           : 7
DT                   .US/F                           : 8
#
#----------------------------------------------------------------------------
~A
# ...
1510.00010          0.27114             0.02238             7700.66100          3370.28462          42.02637            2.29685             90.91182            
1510.10010          0.27320             0.01975             7692.01982          3369.91205          42.63972            2.29259             90.84518            
1510.20010          0.27377             0.01766             7683.48501          3369.53947          42.77680            2.28830             90.77563            
1510.30010          0.27447             0.01681             7680.40932          3369.16690          42.58146            2.28563             90.70615            
1510.40010          0.27583             0.01734             7687.92482          3371.33482          42.75540            2.28587             90.62703            
1510.50010          0.27694             0.01888             7708.43469          3375.34458          43.38187            2.28930             90.52129            
1510.60010          0.27706             0.02080             7740.96556          3379.35435          43.73864            2.29515             90.37134            
1510.70010          0.27550             0.02251             7780.93473          3383.36411          43.40951            2.30195             90.17349            
1510.80010          0.27177             0.02395             7823.20808          3387.37388          42.90125            2.30854             89.94302            
1510.90010          0.26673             0.02534             7863.48875          3391.38364          42.48359            2.31448             89.71242            
1511.00010          0.26161             0.02664             7900.60036          3395.39341          42.08854            2.32022             89.51273            
1511.10010          0.25724             0.02721             7932.99636          3399.40317          41.70173            2.32618             89.37595            
1511.20010          0.25505             0.02612             7954.42435          3403.41293          41.23524            2.33146             89.33754            
1511.30010          0.25552             0.02310             7960.60564          3407.42270          41.06326            2.33444             89.38246            
1511.40010          0.25713             0.01898             7954.75752          3409.74828          41.89558            2.33400             89.43105            
1511.50010          0.25826             0.01515             7944.00413          3410.86684          43.18675            2.33058             89.42081            
1511.60010          0.25798             0.01256             7932.13247          3411.98540          43.60219            2.32621             89.38695            
1511.70010          0.25595             0.01141             7920.92291          3413.10397          43.04428            2.32341             89.40555            
1511.80010          0.25353             0.01107             7915.31091          3414.22253          42.68787            2.32340             89.46847            
1511.90010          0.25267             0.01068             7920.08740          3415.34109          43.22286            2.32544             89.49310            
1512.00010          0.25400             0.00989             7932.18213          3416.45965          43.86441            2.32778             89.44664            
1512.10010          0.25718             0.00896             7943.31961          3417.57821          43.52663            2.32901             89.36858            
1512.20010          0.26122             0.00844             7949.83569          3418.69677          42.32050            2.32886             89.28946            
1512.30010          0.26433             0.00867             7955.74022          3419.81533          41.32804            2.32798             89.18944            
1512.40010          0.26465             0.00969             7964.62239          3423.38898          41.21179            2.32710             89.05634            
1512.50010          0.26163             0.01128             7973.99303          3428.70193          41.80176            2.32635             88.92297            
1512.60010          0.25626             0.01310             7980.14160          3434.01487          42.54483            2.32541             88.81871            
1512.70010          0.25023             0.01495             7983.09526          3439.32782          42.49088            2.32435             88.74507            
1512.80010          0.24605             0.01673             7986.75116          3444.64076          41.43433            2.32412             88.69571            
1512.90010          0.24602             0.01846             7998.28169          3449.95371          40.71864            2.32635             88.65309            
1513.00010          0.24900             0.02011             8028.07642          3455.26666          41.11716            2.33235             88.55176            
1513.10010          0.25150             0.02148             8084.03482          3460.57960          41.98552            2.34216             88.30875            
1513.20010          0.25141             0.02225             8160.27573          3465.89255          42.65024            2.35419             87.93314            
1513.30010          0.24871             0.02230             8234.80403          3471.20549          42.84235            2.36544             87.55363            
1513.40010          0.24528             0.02196             8290.61248          3478.09097          42.70480            2.37322             87.25018            
1513.50010          0.24430             0.02180             8331.08018          3486.07767          42.76040            2.37643             86.94385            
1513.60010          0.24644             0.02210             8358.08525          3494.06437          43.10140            2.37548             86.62843            
1513.70010          0.24890             0.02262             8367.20475          3502.05107          43.40384            2.37200             86.40703            
1513.80010          0.24874             0.02288             8367.96061          3510.03778          43.58926            2.36801             86.25400            
1513.90010          0.24519             0.02250             8371.44651          3518.02448          43.47832            2.36521             86.11613            
1514.00010          0.23969             0.02139             8374.63200          3526.01118          42.66196            2.36403             86.04036            
1514.10010          0.23532             0.01967             8370.26646          3533.99788          41.25251            2.36357             86.06866            
1514.20010          0.23511             0.01768             8358.81101          3541.98459          40.11945            2.36255             86.14917            
1514.30010          0.23956             0.01573             8349.98573          3549.97129          40.12376            2.36030             86.15831            
1514.40010          0.24534             0.01415             8352.09072          3554.46875          40.65064            2.35744             86.03215            
1514.50010          0.24903             0.01312             8363.62078          3556.55092          40.89072            2.35517             85.83086            
1514.60010          0.24982             0.01260             8376.37036          3558.63309          40.82870            2.35442             85.67267            
1514.70010          0.24848             0.01230             8390.31976          3560.71525          41.09967            2.35513             85.55606            
1514.80010          0.24578             0.01182             8407.24647          3562.79742          41.86063            2.35648             85.43297            
1514.90010          0.24237             0.01092             8424.67677          3564.87959          42.37569            2.35792             85.30827            
