#----------------------------------------------------------------------------
~VERSION INFORMATION
VERS.            2.0                  :CWLS LOG ASCII STANDARD -VERSION 2.0
WRAP.            NO                   :ONE LINES PER DEPTH STEP
#
#----------------------------------------------------------------------------
~WELL INFORMATION
#MNEM .UNIT      DATA                 :DESCRIPTION OF MNEMONIC
#----------------------------------------------------------------------------
STRT  .m         100.00000            :START DEPTH
STEP  .m         0.00000              :STEP DEPTH
STOP  .m         1727.90010           :STOP DEPTH
NULL  .          -999.25              :NULL VALUE
COMP  .                               :COMPANY
WELL  .          F06-02               :WELL
LOC   .                               :LOCATION - AREA
FLD   .                               :FIELD
CTRY  .                               :COUNTRY
DATE  .                               :WELL DATE
XWELL .m         623167.00000         :X POS
YWELL .m         6076726.00000        :Y POS
#
#----------------------------------------------------------------------------
~CURVE INFORMATION
#
#MNEM                .UNIT                           : CURVE DESCRIPTION
#----------------------------------------------------------------------------
DEPT                 .Meter                          : 1
NPHI                 .V/V                            : 2
DRHO                 .G/C3                           : 3
AI                   .                               : 4
IntVelocity          .                               : 5
GR                   .GAPI                           : 6
RHOB                 .G/C3                           : 7
DT                   .US/F                           : 8
#
#----------------------------------------------------------------------------
~A
# ...
1425.00000          0.40911             -0.01671            4461.85776          2179.26773          68.32610            2.06192             140.85440           
1425.10000          0.40718             -0.01586            4461.89979          2175.71442          68.45534            2.05831             140.60654           
1425.20000          0.39539             -0.01453            4464.53580          2172.16111          68.27480            2.05254             140.12946           
1425.30000          0.38155             -0.01291            4471.55577          2168.60780          68.44931            2.04800             139.60007           
1425.40000          0.37033             -0.01105            4481.18360          2166.89588          69.03245            2.04659             139.20416           
1425.50000          0.36108             -0.00926            4490.29473          2168.30535          69.48430            2.04789             139.01022           
1425.60000          0.35259             -0.00815            4494.15317          2169.71482          69.77676            2.05003             139.03567           
1425.70000          0.34549             -0.00824            4488.58704          2171.12428          70.21905            2.05168             139.32040           
1425.80000          0.34166             -0.00957            4474.61187          2172.53375          71.03595            2.05285             139.83530           
1425.90000          0.34142             -0.01150            4460.49120          2173.94322          72.01045            2.05428             140.37549           
1426.00000          0.34322             -0.01320            4454.08235          2175.35269          72.49084            2.05619             140.70804           
1426.10000          0.34547             -0.01452            4457.21889          2176.76216          72.08362            2.05772             140.71426           
1426.20000          0.34790             -0.01606            4466.86324          2178.17163          71.25590            2.05761             140.40247           
1426.30000          0.35060             -0.01809            4476.70424          2179.58110          70.43672            2.05519             139.92926           
1426.40000          0.35566             -0.02016            4484.74235          2181.38508          69.06729            2.05112             139.40192           
1426.50000          0.36523             -0.02103            4497.51651          2183.85156          66.32224            2.04679             138.71246           
1426.60000          0.37441             -0.01938            4517.10790          2186.31805          63.36938            2.04320             137.86847           
1426.70000          0.37639             -0.01531            4535.46952          2188.78453          62.31573            2.03990             137.08874           
1426.80000          0.37219             -0.01045            4543.07649          2191.25101          62.84609            2.03550             136.56360           
1426.90000          0.36598             -0.00659            4532.52119          2193.71749          63.27274            2.02932             136.46664           
1427.00000          0.35950             -0.00441            4501.90193          2196.18398          63.29877            2.02291             136.96075           
1427.10000          0.35476             -0.00343            4462.76937          2198.65046          64.07071            2.01999             137.96194           
1427.20000          0.35348             -0.00273            4435.26523          2201.11694          65.62715            2.02401             139.09381           
1427.30000          0.35426             -0.00230            4427.96599          2203.58342          66.66106            2.03504             140.08249           
1427.40000          0.35484             -0.00307            4430.93550          2204.34878          66.96989            2.04877             140.93274           
1427.50000          0.35643             -0.00543            4430.82124          2202.28415          67.15019            2.05896             141.63742           
1427.60000          0.36096             -0.00873            4424.00173          2200.21952          67.17902            2.06122             142.01160           
1427.70000          0.36638             -0.01187            4410.97971          2198.15489          66.72920            2.05469             141.97934           
1427.80000          0.37092             -0.01366            4395.91598          2196.09027          66.01204            2.04233             141.60907           
1427.90000          0.37542             -0.01350            4388.00168          2194.02564          65.20401            2.02929             140.95883           
1428.00000          0.37936             -0.01218            4392.40697          2191.96101          63.64365            2.01994             140.16864           
1428.10000          0.38115             -0.01089            4408.70438          2189.89639          61.54868            2.01650             139.41266           
1428.20000          0.38099             -0.01009            4434.29108          2187.83176          61.03169            2.01978             138.83395           
1428.30000          0.37938             -0.00954            4464.09841          2185.76713          63.42807            2.02924             138.55231           
1428.40000          0.37507             -0.00886            4494.53291          2184.53646          66.81671            2.04290             138.54074           
1428.50000          0.36827             -0.00776            4523.79464          2184.68023          68.34239            2.05788             138.65411           
1428.60000          0.36372             -0.00606            4546.35795          2184.82399          68.48396            2.07152             138.88031           
1428.70000          0.36544             -0.00368            4557.99728          2184.96776          69.43605            2.08166             139.20367           
1428.80000          0.37221             -0.00078            4562.90386          2185.11152          71.54837            2.08751             139.44476           
1428.90000          0.38137             0.00257             4566.83073          2185.25529          73.76038            2.09040             139.51794           
1429.00000          0.39101             0.00648             4576.64302          2185.39906          74.99458            2.09321             139.40576           
1429.10000          0.39836             0.01095             4599.10495          2185.54282          74.67743            2.09830             139.06204           
1429.20000          0.39970             0.01510             4627.67411          2185.68659          72.85939            2.10497             138.64285           
1429.30000          0.39518             0.01723             4646.65831          2185.83035          70.30838            2.10942             138.36871           
1429.40000          0.39049             0.01629             4647.74221          2185.68126          68.09006            2.10798             138.24194           
1429.50000          0.39141             0.01253             4631.88537          2185.05401          66.73482            2.10007             138.19449           
1429.60000          0.39643             0.00717             4604.58834          2184.42675          66.53981            2.08907             138.28546           
1429.70000          0.39948             0.00227             4575.89901          2183.79950          68.08852            2.08116             138.62558           
1429.80000          0.39891             -0.00026            4561.43653          2183.17224          70.61514            2.08171             139.10233           
1429.90000          0.39500             -0.00051            4567.69330          2182.54499          72.96590            2.09080             139.51782           
