#----------------------------------------------------------------------------
~VERSION INFORMATION
VERS.            2.0                  :CWLS LOG ASCII STANDARD -VERSION 2.0
WRAP.            NO                   :ONE LINES PER DEPTH STEP
#
#----------------------------------------------------------------------------
~WELL INFORMATION
#MNEM .UNIT      DATA                 :DESCRIPTION OF MNEMONIC
#----------------------------------------------------------------------------
STRT  .m         100.00000            :START DEPTH
STEP  .m         0.00000              :STEP DEPTH
STOP  .m         1727.90010           :STOP DEPTH
NULL  .          -999.25              :NULL VALUE
COMP  .                               :COMPANY
WELL  .          F06-02               :WELL
LOC   .                               :LOCATION - AREA
FLD   .                               :FIELD
CTRY  .                               :COUNTRY
DATE  .                               :WELL DATE
XWELL .m         623167.00000         :X POS
YWELL .m         6076726.00000        :Y POS
#
#----------------------------------------------------------------------------
~CURVE INFORMATION
#
#MNEM                .UNIT                           : CURVE DESCRIPTION
#----------------------------------------------------------------------------
DEPT                 .Meter                          : 1
NPHI                 .V/V                            : 2
DRHO                 .G/C3                           : 3
AI                   .                               : 4
IntVelocity          .                               : 5
GR                   .GAPI                           : 6
RHOB                 .G/C3                           : 7
DT                   .US/F                           : 8
#
#----------------------------------------------------------------------------
~A
# ...
1705.00010          0.36174             0.01639             5770.38904          2559.29338          124.18733           2.30145             121.56554           
1705.10010          0.35651             0.01436             5839.78739          2575.58859          119.96942           2.30397             120.25288           
1705.20010          0.35713             0.01341             5921.99190          2591.88380          117.75351           2.30550             118.66191           
1705.30010          0.36411             0.01395             6005.07287          2608.92349          117.36302           2.31056             117.27719           
1705.40010          0.37246             0.01575             6094.32754          2631.07464          117.30939           2.32256             116.16002           
1705.50010          0.37436             0.01790             6186.08037          2653.22579          117.31154           2.34143             115.36673           
1705.60010          0.36463             0.01986             6285.87121          2675.37695          117.28723           2.36539             114.69685           
1705.70010          0.34485             0.02201             6434.83575          2697.52810          116.01465           2.39101             113.25520           
1705.80010          0.32309             0.02529             6660.44195          2719.67925          112.91388           2.41666             110.59309           
1705.90010          0.30699             0.02989             6955.51548          2741.83041          108.17467           2.44085             106.96123           
1706.00010          0.30038             0.03345             7181.47234          2763.98156          103.71564           2.45643             104.25711           
1706.10010          0.30728             0.03296             7274.07751          2786.13271          100.16856           2.45516             102.87657           
1706.20010          0.32625             0.02817             7188.20576          2808.28387          97.64238            2.43253             103.14598           
1706.30010          0.35014             0.02175             6880.80986          2822.13230          95.50772            2.39179             105.94943           
1706.40010          0.37352             0.01612             6414.42929          2780.38578          94.00520            2.33919             111.15332           
1706.50010          0.39362             0.01380             5962.43085          2738.63926          93.69220            2.28951             117.04016           
1706.60010          0.41236             0.01520             5690.05801          2696.89274          94.57646            2.25272             120.67166           
1706.70010          0.42615             0.01783             5581.86044          2655.14622          95.60761            2.22988             121.76338           
1706.80010          0.43091             0.01924             5544.66114          2613.39970          95.80959            2.21853             121.95670           
1706.90010          0.43039             0.01929             5480.11179          2571.65318          94.66722            2.21428             123.15643           
1707.00010          0.42810             0.01903             5378.37052          2529.90666          93.38895            2.21438             125.49199           
1707.10010          0.42657             0.01912             5307.75791          2488.16014          93.63574            2.21691             127.30678           
1707.20010          0.42945             0.01929             5295.69374          2446.41362          93.68021            2.22006             127.77821           
1707.30010          0.43312             0.01913             5333.12061          2411.29007          93.20430            2.22266             127.02980           
1707.40010          0.42979             0.01896             5395.67526          2419.43594          93.36040            2.22509             125.69475           
1707.50010          0.41440             0.01937             5450.76450          2427.58180          96.53038            2.22833             124.60529           
1707.60010          0.39250             0.02067             5482.02817          2435.72767          100.81020           2.23239             124.12085           
1707.70010          0.37459             0.02248             5494.15984          2443.87354          101.73862           2.23608             124.05093           
1707.80010          0.36479             0.02437             5507.54825          2452.01940          101.60646           2.23796             123.85397           
1707.90010          0.36501             0.02614             5521.28180          2460.16527          102.42198           2.23714             123.50041           
1708.00010          0.37371             0.02846             5511.70550          2468.31114          103.13045           2.23448             123.56805           
1708.10010          0.38790             0.03249             5492.39812          2476.45700          103.88074           2.23269             123.90299           
1708.20010          0.40072             0.03938             5488.54025          2484.60287          104.93272           2.23513             124.12541           
1708.30010          0.40654             0.04968             5496.45259          2494.66334          105.84349           2.24273             124.36818           
1708.40010          0.40530             0.06151             5511.73383          2516.93367          106.62553           2.25165             124.51665           
1708.50010          0.40282             0.07156             5532.76548          2539.20401          107.14056           2.25622             124.29503           
1708.60010          0.40339             0.07830             5558.11296          2561.47435          106.46516           2.25515             123.66979           
1708.70010          0.40470             0.08181             5587.87058          2583.74468          105.39893           2.25369             122.93123           
1708.80010          0.40219             0.08419             5642.64125          2606.01502          105.17465           2.26094             122.12978           
1708.90010          0.39350             0.08680             5761.11220          2628.28535          105.66965           2.28310             120.79077           
1709.00010          0.37509             0.08869             5953.80000          2650.55569          107.76877           2.31710             118.62207           
1709.10010          0.34674             0.08837             6199.38230          2672.82602          111.73024           2.35449             115.76140           
1709.20010          0.31838             0.08571             6450.24267          2695.09636          114.53442           2.38479             112.69081           
1709.30010          0.29911             0.08192             6676.11407          2719.20474          114.91742           2.40265             109.69357           
1709.40010          0.29023             0.07924             6911.82104          2754.75961          114.51004           2.40943             106.25188           
1709.50010          0.28903             0.08007             7214.68288          2790.31448          113.65907           2.40909             101.77713           
1709.60010          0.29139             0.08469             7569.81937          2825.86935          112.28691           2.40586             96.87254            
1709.70010          0.29482             0.09140             7878.95187          2861.42422          110.49220           2.40184             92.91586            
1709.80010          0.29878             0.09771             8060.02703          2896.97909          108.64848           2.39718             90.65236            
1709.90010          0.30263             0.10131             8033.26637          2932.53396          106.91272           2.39024             90.69095            
