#----------------------------------------------------------------------------
~VERSION INFORMATION
VERS.            2.0                  :CWLS LOG ASCII STANDARD -VERSION 2.0
WRAP.            NO                   :ONE LINES PER DEPTH STEP
#
#----------------------------------------------------------------------------
~WELL INFORMATION
#MNEM .UNIT      DATA                 :DESCRIPTION OF MNEMONIC
#----------------------------------------------------------------------------
STRT  .m         100.00000            :START DEPTH
STEP  .m         0.00000              :STEP DEPTH
STOP  .m         1727.90010           :STOP DEPTH
NULL  .          -999.25              :NULL VALUE
COMP  .                               :COMPANY
WELL  .          F06-02               :WELL
LOC   .                               :LOCATION - AREA
FLD   .                               :FIELD
CTRY  .                               :COUNTRY
DATE  .                               :WELL DATE
XWELL .m         623167.00000         :X POS
YWELL .m         6076726.00000        :Y POS
#
#----------------------------------------------------------------------------
~CURVE INFORMATION
#
#MNEM                .UNIT                           : CURVE DESCRIPTION
#----------------------------------------------------------------------------
DEPT                 .Meter                          : 1
NPHI                 .V/V                            : 2
DRHO                 .G/C3                           : 3
AI                   .                               : 4
IntVelocity          .                               : 5
GR                   .GAPI                           : 6
RHOB                 .G/C3                           : 7
DT                   .US/F                           : 8
#
#----------------------------------------------------------------------------
~A
# ...
1620.00000          0.30364             -0.01960            7163.60414          3316.52643          41.79591            2.17173             92.40384            
1620.10000          0.30135             -0.02047            7220.61220          3320.98447          41.98644            2.17506             91.81482            
1620.20000          0.29484             -0.02069            7293.28708          3325.44251          43.31730            2.18464             91.30020            
1620.30000          0.28387             -0.02045            7378.54914          3329.90055          43.36337            2.19888             90.83339            
1620.40000          0.27150             -0.02023            7470.66608          3333.05010          41.57691            2.21440             90.34650            
1620.50000          0.26003             -0.02013            7556.23974          3336.03380          41.92575            2.22818             89.87942            
1620.60000          0.25666             -0.01985            7618.98528          3339.01750          44.04298            2.23771             89.52040            
1620.70000          0.26354             -0.01887            7649.65253          3342.00120          45.78265            2.24215             89.33835            
1620.80000          0.27450             -0.01686            7646.97938          3344.98491          46.04118            2.24197             89.36224            
1620.90000          0.28379             -0.01413            7619.17603          3347.96861          45.46598            2.23866             89.55624            
1621.00000          0.28971             -0.01130            7576.69891          3350.95231          44.77049            2.23420             89.87854            
1621.10000          0.29091             -0.00917            7534.24319          3353.93601          44.09505            2.23053             90.23674            
1621.20000          0.28838             -0.00836            7499.80957          3356.91971          43.63414            2.22823             90.55740            
1621.30000          0.28566             -0.00905            7472.60898          3359.90341          43.63427            2.22620             90.80440            
1621.40000          0.28697             -0.01081            7444.60269          3353.80258          43.95836            2.22274             91.00414            
1621.50000          0.29088             -0.01288            7410.71704          3346.58260          43.97930            2.21695             91.18224            
1621.60000          0.29501             -0.01467            7372.49811          3339.36262          43.09523            2.20950             91.34688            
1621.70000          0.30180             -0.01578            7336.90091          3332.14264          42.52516            2.20299             91.51967            
1621.80000          0.30871             -0.01627            7307.04514          3324.92266          42.71920            2.19874             91.71620            
1621.90000          0.31047             -0.01627            7283.22396          3317.70267          43.47783            2.19652             91.92336            
1622.00000          0.31012             -0.01571            7255.07545          3310.48269          43.43868            2.19462             92.20035            
1622.10000          0.31185             -0.01441            7213.20107          3303.26271          42.91766            2.19111             92.58740            
1622.20000          0.31638             -0.01274            7160.15051          3296.04273          43.84658            2.18488             93.00815            
1622.30000          0.32532             -0.01154            7101.55334          3288.82275          45.48667            2.17593             93.39150            
1622.40000          0.33719             -0.01136            7044.70607          3286.33208          46.34106            2.16566             93.70068            
1622.50000          0.34604             -0.01196            7009.60915          3284.40733          43.83737            2.15855             93.86046            
1622.60000          0.34553             -0.01254            7008.28052          3282.48258          41.87324            2.15891             93.89426            
1622.70000          0.33346             -0.01251            7048.42395          3280.55783          42.60748            2.16965             93.82372            
1622.80000          0.31490             -0.01236            7115.98586          3278.63308          43.52668            2.18756             93.70006            
1622.90000          0.30014             -0.01339            7181.03835          3276.70833          43.51245            2.20506             93.59424            
1623.00000          0.29540             -0.01646            7219.56965          3274.78357          42.82405            2.21474             93.50331            
1623.10000          0.29920             -0.02135            7232.33573          3272.85882          42.28152            2.21347             93.28453            
1623.20000          0.30561             -0.02682            7232.07745          3270.93407          42.84708            2.20466             92.91685            
1623.30000          0.30949             -0.03102            7234.54656          3269.00932          44.42734            2.19594             92.51738            
1623.40000          0.30934             -0.03276            7240.59568          3267.24684          44.53701            2.19267             92.30248            
1623.50000          0.30647             -0.03236            7249.60305          3265.50321          44.41870            2.19385             92.23732            
1623.60000          0.30296             -0.03075            7256.73122          3263.75959          45.61086            2.19478             92.18616            
1623.70000          0.29956             -0.02868            7248.90863          3262.01596          44.57403            2.19143             92.14482            
1623.80000          0.29558             -0.02662            7217.53201          3260.27233          42.22099            2.18314             92.19527            
1623.90000          0.29129             -0.02472            7166.74551          3258.52870          41.69359            2.17289             92.41263            
1624.00000          0.28886             -0.02285            7111.27120          3256.78508          41.96066            2.16398             92.75142            
1624.10000          0.29001             -0.02109            7072.61939          3255.04145          41.81509            2.15877             93.03391            
1624.20000          0.29346             -0.01973            7054.92583          3253.29782          41.22231            2.15668             93.17685            
1624.30000          0.29661             -0.01886            7035.37776          3251.55419          40.84547            2.15526             93.37427            
1624.40000          0.29711             -0.01852            7001.65003          3244.63152          41.40012            2.15229             93.69490            
1624.50000          0.29571             -0.01847            6963.58085          3237.12534          42.77683            2.14699             93.97501            
1624.60000          0.29625             -0.01845            6926.24725          3229.61916          43.76322            2.14061             94.20065            
1624.70000          0.30135             -0.01827            6890.38718          3222.11298          44.24490            2.13579             94.47769            
1624.80000          0.30987             -0.01779            6858.55356          3214.60680          45.45522            2.13502             94.88190            
1624.90000          0.31838             -0.01688            6835.73297          3207.10062          46.44342            2.14022             95.43074            
