#----------------------------------------------------------------------------
~VERSION INFORMATION
VERS.            2.0                  :CWLS LOG ASCII STANDARD -VERSION 2.0
WRAP.            NO                   :ONE LINES PER DEPTH STEP
#
#----------------------------------------------------------------------------
~WELL INFORMATION
#MNEM .UNIT      DATA                 :DESCRIPTION OF MNEMONIC
#----------------------------------------------------------------------------
STRT  .m         100.00000            :START DEPTH
STEP  .m         0.00000              :STEP DEPTH
STOP  .m         1727.90010           :STOP DEPTH
NULL  .          -999.25              :NULL VALUE
COMP  .                               :COMPANY
WELL  .          F06-02               :WELL
LOC   .                               :LOCATION - AREA
FLD   .                               :FIELD
CTRY  .                               :COUNTRY
DATE  .                               :WELL DATE
XWELL .m         623167.00000         :X POS
YWELL .m         6076726.00000        :Y POS
#
#----------------------------------------------------------------------------
~CURVE INFORMATION
#
#MNEM                .UNIT                           : CURVE DESCRIPTION
#----------------------------------------------------------------------------
DEPT                 .Meter                          : 1
NPHI                 .V/V                            : 2
DRHO                 .G/C3                           : 3
AI                   .                               : 4
IntVelocity          .                               : 5
GR                   .GAPI                           : 6
RHOB                 .G/C3                           : 7
DT                   .US/F                           : 8
#
#----------------------------------------------------------------------------
~A
# ...
1470.00010          0.26935             -0.00306            7259.10762          3219.53358          42.59509            2.25084             94.50957            
1470.10010          0.27887             -0.00314            7298.91257          3224.50309          43.29185            2.25574             94.19894            
1470.20010          0.28441             -0.00428            7316.96497          3229.47259          42.46354            2.25789             94.05602            
1470.30010          0.28427             -0.00605            7314.39965          3234.44209          41.08640            2.25617             94.01758            
1470.40010          0.28005             -0.00764            7294.75870          3235.93973          41.00841            2.25083             94.04730            
1470.50010          0.27402             -0.00834            7269.75628          3233.53657          42.01949            2.24350             94.06355            
1470.60010          0.26859             -0.00795            7249.59468          3231.13341          42.59184            2.23648             94.03005            
1470.70010          0.26645             -0.00688            7232.26576          3228.73026          42.24280            2.23134             94.03851            
1470.80010          0.26854             -0.00573            7215.84138          3226.32710          41.08583            2.22845             94.13057            
1470.90010          0.27277             -0.00496            7208.93677          3223.92394          39.93135            2.22781             94.19350            
1471.00010          0.27571             -0.00470            7222.16609          3221.52078          40.11017            2.22917             94.07852            
1471.10010          0.27510             -0.00450            7260.92048          3219.11762          41.04591            2.23205             93.69716            
1471.20010          0.26974             -0.00354            7326.07167          3216.71446          41.21965            2.23581             93.02063            
1471.30010          0.26058             -0.00092            7406.45245          3214.31130          40.47167            2.24003             92.18443            
1471.40010          0.25377             0.00367             7456.75377          3209.81632          38.98872            2.24409             91.72858            
1471.50010          0.25442             0.00951             7439.72673          3202.99169          37.83859            2.24698             92.05704            
1471.60010          0.26140             0.01490             7378.67904          3196.16707          39.39412            2.24718             92.82694            
1471.70010          0.27214             0.01754             7304.35882          3189.34244          42.08400            2.24330             93.60977            
1471.80010          0.28337             0.01602             7214.39753          3182.51782          42.90823            2.23550             94.44722            
1471.90010          0.29036             0.01045             7102.14147          3175.69319          42.66178            2.22568             95.51869            
1472.00010          0.29304             0.00209             6983.28393          3168.86857          43.14660            2.21662             96.74896            
1472.10010          0.29572             -0.00791            6883.46259          3162.04394          44.62903            2.20973             97.84676            
1472.20010          0.30076             -0.01801            6829.37962          3155.21932          45.78474            2.20534             98.42578            
1472.30010          0.30798             -0.02622            6830.82328          3148.39469          46.06834            2.20408             98.34880            
1472.40010          0.31520             -0.03018            6884.19371          3146.66470          45.79122            2.20803             97.76118            
1472.50010          0.31803             -0.02835            6964.66128          3150.55876          45.13126            2.21864             97.09619            
1472.60010          0.31530             -0.02192            7045.83678          3154.45282          44.38594            2.23358             96.62380            
1472.70010          0.30994             -0.01423            7108.90995          3158.34688          43.57892            2.24715             96.34842            
1472.80010          0.30572             -0.00857            7141.91359          3162.24093          41.62226            2.25350             96.17384            
1472.90010          0.30469             -0.00587            7147.23280          3166.13499          39.29937            2.25113             96.00150            
1473.00010          0.30555             -0.00491            7142.85679          3170.02905          38.73843            2.24337             95.72900            
1473.10010          0.30328             -0.00362            7150.32445          3173.92311          39.04240            2.23651             95.33652            
1473.20010          0.29820             -0.00112            7169.37131          3177.81716          38.78565            2.23410             94.98082            
1473.30010          0.29522             0.00137             7168.97959          3181.71122          37.62742            2.23487             95.01887            
1473.40010          0.29397             0.00258             7142.25477          3182.62042          37.74392            2.23552             95.40228            
1473.50010          0.29208             0.00277             7100.18869          3180.26349          39.26559            2.23430             95.91496            
1473.60010          0.28949             0.00330             7065.48308          3177.90656          39.19292            2.23209             96.29080            
1473.70010          0.28686             0.00458             7045.16400          3175.54963          38.28478            2.23036             96.49371            
1473.80010          0.28458             0.00557             7036.74906          3173.19270          37.81509            2.22940             96.56757            
1473.90010          0.28327             0.00527             7036.62057          3170.83577          37.93236            2.22900             96.55174            
1474.00010          0.28512             0.00383             7042.02806          3168.47885          37.78390            2.22932             96.49167            
1474.10010          0.28692             0.00251             7051.70226          3166.12192          37.22147            2.23076             96.42145            
1474.20010          0.28199             0.00261             7063.48798          3163.76499          38.13569            2.23291             96.35347            
1474.30010          0.27381             0.00428             7076.49229          3161.40806          39.92377            2.23436             96.23882            
1474.40010          0.26866             0.00650             7086.84932          3159.89366          41.33633            2.23355             96.06342            
1474.50010          0.26569             0.00811             7085.28156          3159.29313          40.59622            2.23057             95.95639            
1474.60010          0.26665             0.00869             7073.49625          3158.69259          39.42175            2.22668             95.94847            
1474.70010          0.27211             0.00850             7059.76218          3158.09205          39.63317            2.22370             96.00647            
1474.80010          0.27841             0.00821             7046.54450          3157.49151          41.32212            2.22237             96.12898            
1474.90010          0.28291             0.00859             7037.66001          3156.89098          43.16236            2.22286             96.27182            
